[{"Hotel_Name":"Hotel Arena","lat":52.3605759,"lng":4.9159683},{"Hotel_Name":"K K Hotel George","lat":51.4918878,"lng":-0.1949706},{"Hotel_Name":"Apex Temple Court Hotel","lat":51.5137335,"lng":-0.1087512},{"Hotel_Name":"The Park Grand London Paddington","lat":51.5142184,"lng":-0.1809032},{"Hotel_Name":"Monhotel Lounge SPA","lat":48.8743481,"lng":2.2897334},{"Hotel_Name":"Kube Hotel Ice Bar","lat":48.88657,"lng":2.3588332},{"Hotel_Name":"The Principal London","lat":51.5226217,"lng":-0.1251602},{"Hotel_Name":"Park Plaza County Hall London","lat":51.5014001,"lng":-0.1160092},{"Hotel_Name":"One Aldwych","lat":51.5117832,"lng":-0.1194172},{"Hotel_Name":"Splendid Etoile","lat":48.874707,"lng":2.2936761},{"Hotel_Name":"Hotel Trianon Rive Gauche","lat":48.8487675,"lng":2.3410376},{"Hotel_Name":"InterContinental London Park Lane","lat":51.5038632,"lng":-0.1504132},{"Hotel_Name":"Novotel Suites Paris Nord 18 me","lat":48.9015941,"lng":2.3597783},{"Hotel_Name":"Grand Royale London Hyde Park","lat":51.5109945,"lng":-0.1863417},{"Hotel_Name":"Milestone Hotel Kensington","lat":51.5020425,"lng":-0.1866541},{"Hotel_Name":"Crowne Plaza London Kings Cross","lat":51.5263854,"lng":-0.1136042},{"Hotel_Name":"Select Hotel","lat":48.8483053,"lng":2.3425596},{"Hotel_Name":"H tel De Vend me","lat":48.8668564,"lng":2.3286339},{"Hotel_Name":"Pullman Paris Centre Bercy","lat":48.8315204,"lng":2.3870797},{"Hotel_Name":"Gardette Park Hotel","lat":48.8610265,"lng":2.3788974},{"Hotel_Name":"Hotel Panache","lat":48.8732543,"lng":2.343239},{"Hotel_Name":"H tel des Ducs D Anjou","lat":48.8598229,"lng":2.347111},{"Hotel_Name":"Hotel Scribe Paris Opera by Sofitel","lat":48.8704175,"lng":2.3296832},{"Hotel_Name":"Novotel London West","lat":51.4919588,"lng":-0.2200956},{"Hotel_Name":"Haymarket Hotel","lat":51.5084595,"lng":-0.1311382},{"Hotel_Name":"Intercontinental London The O2","lat":51.5024348,"lng":-0.0002497},{"Hotel_Name":"H tel Juliana Paris","lat":48.8619373,"lng":2.3040298},{"Hotel_Name":"Hotel L Antoine","lat":48.8524215,"lng":2.3743832},{"Hotel_Name":"Belfast","lat":48.8756435,"lng":2.2938788},{"Hotel_Name":"Shangri La Hotel Paris","lat":48.8637135,"lng":2.2934759},{"Hotel_Name":"Mercure Paris Tour Eiffel Pont Mirabeau","lat":48.8460269,"lng":2.2788281},{"Hotel_Name":"Knightsbridge Hotel","lat":51.4980052,"lng":-0.1643238},{"Hotel_Name":"The London EDITION","lat":51.5167472,"lng":-0.135965},{"Hotel_Name":"The Cranley Hotel","lat":51.4916378,"lng":-0.1832833},{"Hotel_Name":"Hotel Le 10 BIS","lat":48.8780363,"lng":2.2864907},{"Hotel_Name":"The Nadler Soho","lat":51.5147387,"lng":-0.1341108},{"Hotel_Name":"Grange St Paul s Hotel","lat":51.5127625,"lng":-0.0997157},{"Hotel_Name":"The Ampersand Hotel","lat":51.4943077,"lng":-0.1755579},{"Hotel_Name":"Covent Garden Hotel","lat":51.5145986,"lng":-0.1270336},{"Hotel_Name":"The Nadler Victoria","lat":51.4990259,"lng":-0.1427453},{"Hotel_Name":"Novotel London Tower Bridge","lat":51.5106538,"lng":-0.0773676},{"Hotel_Name":"Crowne Plaza Paris R publique","lat":48.8673199,"lng":2.3656296},{"Hotel_Name":"Le Metropolitan a Tribute Portfolio Hotel","lat":48.8656973,"lng":2.2829776},{"Hotel_Name":"Atala Champs Elys es","lat":48.8735418,"lng":2.302442},{"Hotel_Name":"H tel de Jos phine BONAPARTE","lat":48.8555319,"lng":2.3621212},{"Hotel_Name":"Maison Souquet","lat":48.88366,"lng":2.3313845},{"Hotel_Name":"Hotel Tour d Auvergne Opera","lat":48.8789432,"lng":2.3448623},{"Hotel_Name":"Le Senat","lat":48.8491427,"lng":2.3397118},{"Hotel_Name":"Windsor Opera","lat":48.8734851,"lng":2.3485111},{"Hotel_Name":"Holiday Inn Paris Montparnasse Pasteur","lat":48.8376887,"lng":2.3063102},{"Hotel_Name":"H tel Keppler","lat":48.8699103,"lng":2.2973386},{"Hotel_Name":"Les Plumes Hotel","lat":48.8766269,"lng":2.3432886},{"Hotel_Name":"Hotel des Tuileries Relais du Silence","lat":48.8661705,"lng":2.331561},{"Hotel_Name":"Bradford Elys es Astotel","lat":48.8729676,"lng":2.3081178},{"Hotel_Name":"W London Leicester Square","lat":51.510843,"lng":-0.1314287},{"Hotel_Name":"The Victoria","lat":51.4611219,"lng":-0.2756216},{"Hotel_Name":"Pullman London St Pancras","lat":51.5286766,"lng":-0.1283489},{"Hotel_Name":"Crowne Plaza London Kensington","lat":51.495179,"lng":-0.183827},{"Hotel_Name":"Doubletree by Hilton London Kensington","lat":51.4925138,"lng":-0.1787917},{"Hotel_Name":"Ace Hotel London Shoreditch","lat":51.5254162,"lng":-0.0772849},{"Hotel_Name":"Staybridge Suites London Vauxhall","lat":51.4891226,"lng":-0.1205639},{"Hotel_Name":"The Grosvenor","lat":51.4956657,"lng":-0.1452793},{"Hotel_Name":"The Park Tower Knightsbridge a Luxury Collection Hotel","lat":51.5014191,"lng":-0.1625805},{"Hotel_Name":"Amp re","lat":48.8848583,"lng":2.2997023},{"Hotel_Name":"Melia Paris Champs Elys es","lat":48.8688962,"lng":2.2827459},{"Hotel_Name":"Le Parisis Paris Tour Eiffel","lat":48.8494851,"lng":2.2955063},{"Hotel_Name":"Thistle Kensington Gardens","lat":51.5108439,"lng":-0.1839074},{"Hotel_Name":"Park Plaza Sherlock Holmes London","lat":51.5209191,"lng":-0.1566567},{"Hotel_Name":"Hilton Paris Opera","lat":48.8756604,"lng":2.3252075},{"Hotel_Name":"The Kensington Hotel","lat":51.4925478,"lng":-0.1780611},{"Hotel_Name":"Holiday Inn London Stratford City","lat":51.5426054,"lng":-0.0072708},{"Hotel_Name":"Staybridge Suites London Stratford","lat":51.5426351,"lng":-0.0073272},{"Hotel_Name":"Shepherd s Bush Boutique Hotel","lat":51.5054544,"lng":-0.2262216},{"Hotel_Name":"My Bloomsbury","lat":51.5188555,"lng":-0.1319172},{"Hotel_Name":"Holiday Inn Paris Gare de Lyon Bastille","lat":48.8468064,"lng":2.3714789},{"Hotel_Name":"H tel Chaplain Paris Rive Gauche","lat":48.8427564,"lng":2.3305636},{"Hotel_Name":"H tel Regina Op ra Grands Boulevards","lat":48.8708508,"lng":2.3515882},{"Hotel_Name":"11 Cadogan Gardens","lat":51.4936161,"lng":-0.1592347},{"Hotel_Name":"The Wellesley Knightsbridge a Luxury Collection Hotel London","lat":51.502485,"lng":-0.1539265},{"Hotel_Name":"Hotel Astor Saint Honor ","lat":48.8728324,"lng":2.3193886},{"Hotel_Name":"Op ra Marigny","lat":48.871723,"lng":2.3235377},{"Hotel_Name":"H tel Diva Opera","lat":48.8732706,"lng":2.3450746},{"Hotel_Name":"Le Marcel","lat":48.8761376,"lng":2.3572681},{"Hotel_Name":"H tel Duo","lat":48.8581186,"lng":2.3529369},{"Hotel_Name":"H tel Le Marianne","lat":48.8725794,"lng":2.3075779},{"Hotel_Name":"The Rembrandt","lat":51.4959227,"lng":-0.1702917},{"Hotel_Name":"Hotel Eden","lat":48.8405612,"lng":2.2991035},{"Hotel_Name":"H tel de la Bourdonnais","lat":48.8550466,"lng":2.304583},{"Hotel_Name":"Ashburn Hotel","lat":51.4945522,"lng":-0.1861213},{"Hotel_Name":"Marlin Waterloo","lat":51.4990953,"lng":-0.1132136},{"Hotel_Name":"Best Western Premier Marais Grands Boulevards","lat":48.8687425,"lng":2.3541761},{"Hotel_Name":"Novotel London Waterloo","lat":51.4948465,"lng":-0.1187481},{"Hotel_Name":"The Athenaeum","lat":51.504716,"lng":-0.1475618},{"Hotel_Name":"Park International Hotel","lat":51.4945144,"lng":-0.1866172},{"Hotel_Name":"Lansbury Heritage Hotel","lat":51.5090985,"lng":-0.0157302},{"Hotel_Name":"Le Dokhan s a Tribute Portfolio Hotel","lat":48.8663359,"lng":2.2867935},{"Hotel_Name":"Le Relais Madeleine","lat":48.870961,"lng":2.3267678},{"Hotel_Name":"Terrass H tel Montmartre by MH","lat":48.8865626,"lng":2.3329648},{"Hotel_Name":"Millennium Hotel Paris Opera","lat":48.8724588,"lng":2.3378004},{"Hotel_Name":"Waldorf Madeleine","lat":48.8715828,"lng":2.3224853},{"Hotel_Name":"Batty Langley s","lat":51.5208575,"lng":-0.0779503},{"Hotel_Name":"Best Western Mornington Hotel Hyde Park","lat":51.5119933,"lng":-0.1782794},{"Hotel_Name":"Arbor City","lat":51.5166755,"lng":-0.0697897},{"Hotel_Name":"Hotel La Lanterne","lat":48.8489839,"lng":2.348383},{"Hotel_Name":"H tel Square Louvois","lat":48.8684165,"lng":2.336869},{"Hotel_Name":"Hotel Marignan Champs Elys es","lat":48.8685093,"lng":2.3067895},{"Hotel_Name":"Le Grey Hotel","lat":48.881407,"lng":2.3274204},{"Hotel_Name":"Le Pavillon des Lettres","lat":48.8713699,"lng":2.3181191},{"Hotel_Name":"H tel San R gis","lat":48.8665788,"lng":2.3084447},{"Hotel_Name":"Garden Elys e","lat":48.8663444,"lng":2.2881979},{"Hotel_Name":"Hotel Louvre Montana","lat":48.8644627,"lng":2.3318473},{"Hotel_Name":"Ambassadors Bloomsbury","lat":51.5266618,"lng":-0.1296571},{"Hotel_Name":"Le 123 S bastopol Astotel","lat":48.8675886,"lng":2.3531018},{"Hotel_Name":"Le 123 Elysees Astotel","lat":48.8730823,"lng":2.309659},{"Hotel_Name":"The Bryson Hotel","lat":51.5220869,"lng":-0.1082443},{"Hotel_Name":"Best Western Mercedes Arc de Triomphe","lat":48.8848292,"lng":2.3035189},{"Hotel_Name":"London Marriott Hotel Regents Park","lat":51.5421476,"lng":-0.1703073},{"Hotel_Name":"Hilton London Hyde Park","lat":51.51046,"lng":-0.1875844},{"Hotel_Name":"Staunton Hotel B B","lat":51.520378,"lng":-0.1303414},{"Hotel_Name":"1K Hotel","lat":48.8639318,"lng":2.3658744},{"Hotel_Name":"H tel Westminster","lat":48.8693409,"lng":2.3310263},{"Hotel_Name":"L H tel","lat":48.8562272,"lng":2.3351758},{"Hotel_Name":"Mercure Paris Porte d Orleans","lat":48.8178079,"lng":2.3293636},{"Hotel_Name":"Maxim Op ra","lat":48.8738557,"lng":2.3444232},{"Hotel_Name":"Le Marceau Bastille","lat":48.8490691,"lng":2.3697484},{"Hotel_Name":"Hotel Odeon Saint Germain","lat":48.8513515,"lng":2.3375084},{"Hotel_Name":"Mercure London Bloomsbury Hotel","lat":51.5210085,"lng":-0.1230966},{"Hotel_Name":"The Chamberlain","lat":51.5122457,"lng":-0.0757326},{"Hotel_Name":"Radisson Blu Edwardian Grafton","lat":51.5241386,"lng":-0.1380807},{"Hotel_Name":"La Villa Haussmann","lat":48.8753446,"lng":2.3167161},{"Hotel_Name":"London Marriott Hotel Marble Arch","lat":51.5163841,"lng":-0.1635764},{"Hotel_Name":"Saint Georges Hotel","lat":51.517839,"lng":-0.1424476},{"Hotel_Name":"Park Grand London Lancaster Gate","lat":51.5132069,"lng":-0.1807816},{"Hotel_Name":"The Henrietta Hotel","lat":51.5109079,"lng":-0.1238221},{"Hotel_Name":"Sofitel Paris Arc De Triomphe","lat":48.8751845,"lng":2.3013214},{"Hotel_Name":"Hotel Mercure La Sorbonne Saint Germain des Pr s","lat":48.8493499,"lng":2.3430569},{"Hotel_Name":"La Tremoille Paris","lat":48.8668589,"lng":2.3028215},{"Hotel_Name":"Hotel Op ra Richepanse","lat":48.8686931,"lng":2.325211},{"Hotel_Name":"H tel Duc De St Simon","lat":48.8560685,"lng":2.3236846},{"Hotel_Name":"Hotel Le Six","lat":48.8438352,"lng":2.3280708},{"Hotel_Name":"The Bailey s Hotel London","lat":51.4938733,"lng":-0.1824963},{"Hotel_Name":"London Marriott Hotel Park Lane","lat":51.5131428,"lng":-0.1576714},{"Hotel_Name":"Best Western Premier Louvre Saint Honor ","lat":48.861711,"lng":2.340674},{"Hotel_Name":"Hotel Indigo London Tower Hill","lat":51.5128032,"lng":-0.07586},{"Hotel_Name":"Windermere Hotel","lat":51.4903724,"lng":-0.1459218},{"Hotel_Name":"La Villa Maillot","lat":48.875551,"lng":2.2835191},{"Hotel_Name":"H tel Madison by MH","lat":48.8531641,"lng":2.3344097},{"Hotel_Name":"Mercure London Paddington Hotel","lat":51.5161139,"lng":-0.1749521},{"Hotel_Name":"Hilton London Paddington","lat":51.515632,"lng":-0.175737},{"Hotel_Name":"London Marriott Hotel Kensington","lat":51.4944849,"lng":-0.1884174},{"Hotel_Name":"Kensington House Hotel","lat":51.5012329,"lng":-0.1859937},{"Hotel_Name":"Charlotte Street Hotel","lat":51.5184158,"lng":-0.1348509},{"Hotel_Name":"The Goring","lat":51.4975621,"lng":-0.145551},{"Hotel_Name":"Novotel Paris 14 Porte d Orl ans","lat":48.8196885,"lng":2.3263505},{"Hotel_Name":"The Pelham Starhotels Collezione","lat":51.4943935,"lng":-0.1750169},{"Hotel_Name":"The Montague On The Gardens","lat":51.520181,"lng":-0.1256957},{"Hotel_Name":"Ritz Paris","lat":48.8679466,"lng":2.3289593},{"Hotel_Name":"Hotel Les Rives de Notre Dame","lat":48.8532269,"lng":2.3457159},{"Hotel_Name":"Sofitel Paris Le Faubourg","lat":48.868414,"lng":2.3213247},{"Hotel_Name":"Bassano","lat":48.8690596,"lng":2.2971078},{"Hotel_Name":"Best Western Premier Le Swann","lat":48.8797331,"lng":2.3206003},{"Hotel_Name":"H tel des Academies et des Arts","lat":48.8420669,"lng":2.3304091},{"Hotel_Name":"Hotel Lumen Paris Louvre","lat":48.8652582,"lng":2.3329632},{"Hotel_Name":"Le Marquis Eiffel","lat":48.8516619,"lng":2.2979395},{"Hotel_Name":"COQ Hotel Paris","lat":48.8328764,"lng":2.3572531},{"Hotel_Name":"Mill sime H tel","lat":48.8550236,"lng":2.3350786},{"Hotel_Name":"The Leonard Hotel","lat":51.5147071,"lng":-0.1578291},{"Hotel_Name":"DoubleTree by Hilton London Hyde Park","lat":51.5100362,"lng":-0.190657},{"Hotel_Name":"The Ritz London","lat":51.5069446,"lng":-0.1415776},{"Hotel_Name":"M by Montcalm Shoreditch London Tech City","lat":51.5278465,"lng":-0.0889473},{"Hotel_Name":"Legend Saint Germain by Elegancia","lat":48.8453774,"lng":2.3256427},{"Hotel_Name":"Clayton Crown Hotel London","lat":51.5561548,"lng":-0.2141824},{"Hotel_Name":"Au Manoir Saint Germain","lat":48.853688,"lng":2.3322667},{"Hotel_Name":"St Paul s Hotel","lat":51.4934752,"lng":-0.2153256},{"Hotel_Name":"Best Western S vres Montparnasse","lat":48.843707,"lng":2.3155631},{"Hotel_Name":"The Bloomsbury Hotel","lat":51.5171671,"lng":-0.1290534},{"Hotel_Name":"Nolinski Paris","lat":48.8654874,"lng":2.3348924},{"Hotel_Name":"Le Tourville Eiffel","lat":48.8542681,"lng":2.3078116},{"Hotel_Name":"Paris Marriott Opera Ambassador Hotel","lat":48.8728351,"lng":2.3362507},{"Hotel_Name":"Hotel Indigo London Paddington","lat":51.5150534,"lng":-0.1739974},{"Hotel_Name":"Idol Hotel","lat":48.8795369,"lng":2.3202966},{"Hotel_Name":"H tel California Champs Elys es","lat":48.8726335,"lng":2.3048084},{"Hotel_Name":"Hotel de Seze","lat":48.8705741,"lng":2.3264194},{"Hotel_Name":"Number Sixteen","lat":51.4930905,"lng":-0.1755022},{"Hotel_Name":"Hotel Xenia Autograph Collection","lat":51.4946905,"lng":-0.1910197},{"Hotel_Name":"H tel Hor","lat":48.8793427,"lng":2.3577745},{"Hotel_Name":"Britannia International Hotel Canary Wharf","lat":51.5019097,"lng":-0.0232208},{"Hotel_Name":"Best Western Op ra Batignolles","lat":48.8870573,"lng":2.3143297},{"Hotel_Name":"H tel de Banville","lat":48.8864673,"lng":2.2948911},{"Hotel_Name":"Villa Eugenie","lat":48.8871283,"lng":2.314205},{"Hotel_Name":"Hilton London Euston","lat":51.5265189,"lng":-0.1303689},{"Hotel_Name":"Egerton House","lat":51.4968406,"lng":-0.1675498},{"Hotel_Name":"Millennium Hotel London Knightsbridge","lat":51.4999683,"lng":-0.1599927},{"Hotel_Name":"H tel Raphael","lat":48.8713239,"lng":2.2937849},{"Hotel_Name":"Le 7 Eiffel Hotel","lat":48.8585193,"lng":2.3077243},{"Hotel_Name":"Paris Marriott Rive Gauche Hotel","lat":48.8315962,"lng":2.3399796},{"Hotel_Name":"Hotel La Place","lat":51.5215257,"lng":-0.1533039},{"Hotel_Name":"Hotel Le Pera","lat":48.871309,"lng":2.3277079},{"Hotel_Name":"H tel Bedford","lat":48.8720593,"lng":2.3236802},{"Hotel_Name":"Drawing Hotel","lat":48.8644382,"lng":2.3359148},{"Hotel_Name":"Novotel Paris Centre Gare Montparnasse","lat":48.838484,"lng":2.3150904},{"Hotel_Name":"D clic Hotel","lat":48.8908018,"lng":2.3380204},{"Hotel_Name":"Villa d Estr es","lat":48.8535089,"lng":2.3425787},{"Hotel_Name":"Bulgari Hotel London","lat":51.5015721,"lng":-0.1628511},{"Hotel_Name":"Novotel London Greenwich","lat":51.4778583,"lng":-0.0137463},{"Hotel_Name":"Park Avenue Baker Street","lat":51.5241452,"lng":-0.1609907},{"Hotel_Name":"Hotel Plaza Elys es","lat":48.8746128,"lng":2.3056956},{"Hotel_Name":"Hotel Champs Elys es Friedland by Happyculture","lat":48.8750848,"lng":2.3048372},{"Hotel_Name":"Malmaison London","lat":51.520943,"lng":-0.1004581},{"Hotel_Name":"The Park City Grand Plaza Kensington Hotel","lat":51.4954976,"lng":-0.1893691},{"Hotel_Name":"Park Plaza London Riverbank","lat":51.4913737,"lng":-0.1214194},{"Hotel_Name":"Pullman Paris Tour Eiffel","lat":48.8555664,"lng":2.2926243},{"Hotel_Name":"Danubius Hotel Regents Park","lat":51.529257,"lng":-0.168358},{"Hotel_Name":"Hotel Bachaumont","lat":48.8663208,"lng":2.3450399},{"Hotel_Name":"Franklin Roosevelt","lat":48.8678432,"lng":2.3033075},{"Hotel_Name":"H tel Horset Op ra Best Western Premier Collection","lat":48.8691686,"lng":2.3337818},{"Hotel_Name":"Best Western Paris Gare Saint Lazare","lat":48.8803752,"lng":2.319591},{"Hotel_Name":"Splendide Royal Paris","lat":48.8709627,"lng":2.3154141},{"Hotel_Name":"The Rockwell","lat":51.4948059,"lng":-0.1926525},{"Hotel_Name":"The LaLit London","lat":51.5032524,"lng":-0.078179},{"Hotel_Name":"Mercure Paris Alesia","lat":48.8237487,"lng":2.324056},{"Hotel_Name":"Courthouse Hotel London","lat":51.5143624,"lng":-0.1394483},{"Hotel_Name":"Best Western The Boltons Hotel London Kensington","lat":51.4907493,"lng":-0.1934627},{"Hotel_Name":"Radisson Blu Edwardian Sussex","lat":51.5144381,"lng":-0.1558337},{"Hotel_Name":"Hotel The Peninsula Paris","lat":48.8710605,"lng":2.2933537},{"Hotel_Name":"Le Narcisse Blanc Spa","lat":48.8605125,"lng":2.3106533},{"Hotel_Name":"The Pillar Hotel","lat":51.583236,"lng":-0.216868},{"Hotel_Name":"Crowne Plaza London The City","lat":51.5122429,"lng":-0.1045036},{"Hotel_Name":"H tel Les Dames du Panth on","lat":48.845743,"lng":2.34493},{"Hotel_Name":"H tel Victor Hugo Paris Kl ber","lat":48.8690198,"lng":2.2891278},{"Hotel_Name":"Grand Hotel Saint Michel","lat":48.8478399,"lng":2.342254},{"Hotel_Name":"Hotel Maison Ath n e","lat":48.8713421,"lng":2.3280723},{"Hotel_Name":"Relais Du Louvre","lat":48.8592264,"lng":2.340996},{"Hotel_Name":"Pullman Paris Montparnasse","lat":48.8382943,"lng":2.3210421},{"Hotel_Name":"Best Western Ducs de Bourgogne","lat":48.8603483,"lng":2.3440535},{"Hotel_Name":"Best Western Premier Op ra Opal","lat":48.8722588,"lng":2.3257608},{"Hotel_Name":"Amarante Champs Elys es","lat":48.8717649,"lng":2.2983855},{"Hotel_Name":"The Gore Hotel Starhotels Collezione","lat":51.5001979,"lng":-0.1795357},{"Hotel_Name":"The Hoxton Holborn","lat":51.5172398,"lng":-0.1220324},{"Hotel_Name":"Mercure London Kensington Hotel","lat":51.4950098,"lng":-0.1906195},{"Hotel_Name":"Royal Garden Hotel","lat":51.5027022,"lng":-0.1882164},{"Hotel_Name":"Boundary Rooms Suites","lat":51.5244224,"lng":-0.0764614},{"Hotel_Name":"H tel Ad le Jules","lat":48.8721062,"lng":2.3451384},{"Hotel_Name":"Grange White Hall Hotel","lat":51.5203469,"lng":-0.1260893},{"Hotel_Name":"Hilton London Bankside","lat":51.5056956,"lng":-0.101525},{"Hotel_Name":"DoubleTree by Hilton London Ealing","lat":51.511521,"lng":-0.290706},{"Hotel_Name":"Molitor Paris MGallery by Sofitel","lat":48.8448902,"lng":2.252833},{"Hotel_Name":"First Hotel Paris Tour Eiffel","lat":48.8475112,"lng":2.3022198},{"Hotel_Name":"DoubleTree by Hilton London Victoria","lat":51.49398,"lng":-0.143372},{"Hotel_Name":"St Ermin s Hotel Autograph Collection","lat":51.498905,"lng":-0.1339093},{"Hotel_Name":"Montagu Place Hotel","lat":51.5191009,"lng":-0.1592},{"Hotel_Name":"H tel Regina","lat":48.8637503,"lng":2.3320406},{"Hotel_Name":"Mercure Paris Gare De Lyon TGV","lat":48.8442949,"lng":2.3730938},{"Hotel_Name":"Villa Montparnasse","lat":48.8349272,"lng":2.3295913},{"Hotel_Name":"H tel des Champs Elys es","lat":48.8722884,"lng":2.3090359},{"Hotel_Name":"Lyric H tel Paris","lat":48.8690126,"lng":2.3368708},{"Hotel_Name":"Hotel Design Secret de Paris","lat":48.8814056,"lng":2.3282568},{"Hotel_Name":"Hotel Dupond Smith","lat":48.857898,"lng":2.3571978},{"Hotel_Name":"Okko Hotels Paris Porte De Versailles","lat":48.8327729,"lng":2.2787597},{"Hotel_Name":"La Villa Royale","lat":48.8821595,"lng":2.3367444},{"Hotel_Name":"Hotel Indigo Paris Opera","lat":48.8704371,"lng":2.329236},{"Hotel_Name":"Villa Opera Drouot","lat":48.8732231,"lng":2.3436097},{"Hotel_Name":"Novotel Paris Gare De Lyon","lat":48.8453785,"lng":2.3753036},{"Hotel_Name":"H tel Belloy Saint Germain By Happyculture","lat":48.8503901,"lng":2.3422527},{"Hotel_Name":"Hotel Louis 2","lat":48.8516148,"lng":2.3381293},{"Hotel_Name":"InterContinental Paris Le Grand","lat":48.8708391,"lng":2.3303651},{"Hotel_Name":"The Trafalgar Hilton","lat":51.507374,"lng":-0.129135},{"Hotel_Name":"Park Lane Mews Hotel","lat":51.5059334,"lng":-0.1489418},{"Hotel_Name":"Old Ship Inn Hackney","lat":51.5458476,"lng":-0.0554113},{"Hotel_Name":"The Drayton Court Hotel","lat":51.5141842,"lng":-0.3192925},{"Hotel_Name":"The Montcalm Marble Arch","lat":51.5150522,"lng":-0.159239},{"Hotel_Name":"The Colonnade","lat":51.5243286,"lng":-0.1846623},{"Hotel_Name":"The Royal Horseguards","lat":51.5054185,"lng":-0.1241499},{"Hotel_Name":"Grange Fitzrovia Hotel","lat":51.521759,"lng":-0.1425381},{"Hotel_Name":"H tel Le M","lat":48.8397623,"lng":2.3235324},{"Hotel_Name":"The Hari London","lat":51.4973203,"lng":-0.1562558},{"Hotel_Name":"citizenM London Bankside","lat":51.5051507,"lng":-0.1004724},{"Hotel_Name":"Radisson Blu Edwardian Mercer Street","lat":51.5139275,"lng":-0.1271506},{"Hotel_Name":"Twenty Nevern Square Hotel","lat":51.4915712,"lng":-0.1963192},{"Hotel_Name":"The Abbey Court Notting Hill","lat":51.5101401,"lng":-0.1968951},{"Hotel_Name":"Seven Hotel","lat":48.8389823,"lng":2.3455528},{"Hotel_Name":"Platine Hotel Spa","lat":48.8473459,"lng":2.2832408},{"Hotel_Name":"Mercure Paris Gare Montparnasse","lat":48.84014,"lng":2.32385},{"Hotel_Name":"Mercure Paris Notre Dame Saint Germain des Pr s","lat":48.8503074,"lng":2.3450612},{"Hotel_Name":"Mercure Paris Centre Tour Eiffel","lat":48.8548641,"lng":2.2923181},{"Hotel_Name":"Banke H tel","lat":48.8735736,"lng":2.335965},{"Hotel_Name":"Mondrian London","lat":51.5084036,"lng":-0.1067988},{"Hotel_Name":"Karma Sanctum Soho Hotel","lat":51.5116049,"lng":-0.1383145},{"Hotel_Name":"NH London Kensington","lat":51.4948507,"lng":-0.1945544},{"Hotel_Name":"Saint James Albany Paris Hotel Spa","lat":48.8642689,"lng":2.3308179},{"Hotel_Name":"Mercure Paris Montparnasse Raspail","lat":48.8412131,"lng":2.3302954},{"Hotel_Name":"Golden Tulip Bercy Gare de Lyon 209","lat":48.8393229,"lng":2.3892274},{"Hotel_Name":"Montfleuri","lat":48.8747153,"lng":2.2906388},{"Hotel_Name":"Simply Rooms Suites","lat":51.4944875,"lng":-0.2070605},{"Hotel_Name":"Mercure Paris Pigalle Sacre Coeur","lat":48.8823398,"lng":2.3364764},{"Hotel_Name":"The Academy","lat":51.5205441,"lng":-0.1308091},{"Hotel_Name":"Le Meridien Piccadilly","lat":51.5094835,"lng":-0.1362538},{"Hotel_Name":"Mercure Paris Terminus Nord","lat":48.8794843,"lng":2.3556545},{"Hotel_Name":"H tel F licien by Elegancia","lat":48.8493082,"lng":2.2743626},{"Hotel_Name":"Le Lavoisier","lat":48.8737702,"lng":2.3201063},{"Hotel_Name":"H tel Moli re","lat":48.8655293,"lng":2.3360102},{"Hotel_Name":"Vice Versa","lat":48.8363819,"lng":2.2897793},{"Hotel_Name":"The Kings Head Hotel","lat":51.5079153,"lng":-0.2730145},{"Hotel_Name":"H tel Etoile Saint Honor by Happyculture","lat":48.8756508,"lng":2.3041568},{"Hotel_Name":"Hotel Le petit Paris","lat":48.8452789,"lng":2.342295},{"Hotel_Name":"Mercure Paris 19 Philharmonie La Villette","lat":48.8886969,"lng":2.3945403},{"Hotel_Name":"Royal Garden Champs Elysees","lat":48.8757155,"lng":2.3038781},{"Hotel_Name":"H tel Brighton Esprit de France","lat":48.8649306,"lng":2.3290844},{"Hotel_Name":"H tel Paris Bastille Boutet MGallery by Sofitel","lat":48.8519215,"lng":2.3839993},{"Hotel_Name":"Montcalm Royal London House City of London","lat":51.5218066,"lng":-0.0856081},{"Hotel_Name":"Conrad London St James","lat":51.4993927,"lng":-0.1329128},{"Hotel_Name":"L Edmond H tel","lat":48.8823111,"lng":2.3132374},{"Hotel_Name":"Novotel Suites Paris Montreuil Vincennes","lat":48.8554268,"lng":2.4152555},{"Hotel_Name":"London Marriott Hotel West India Quay","lat":51.5072713,"lng":-0.0211213},{"Hotel_Name":"London Hilton on Park Lane","lat":51.5055513,"lng":-0.1501698},{"Hotel_Name":"Radisson Blu Portman Hotel London","lat":51.5161911,"lng":-0.1579487},{"Hotel_Name":"H tel France d Antin Op ra","lat":48.8692566,"lng":2.3339369},{"Hotel_Name":"Hotel Stendhal Place Vend me Paris MGallery by Sofitel","lat":48.8681455,"lng":2.3313064},{"Hotel_Name":"H tel De Buci by MH","lat":48.8538752,"lng":2.3366123},{"Hotel_Name":"Hotel Parc Saint Severin Esprit de France","lat":48.8518584,"lng":2.3447798},{"Hotel_Name":"Hotel Chavanel","lat":48.8721692,"lng":2.3262681},{"Hotel_Name":"The Portobello Hotel","lat":51.512257,"lng":-0.2034244},{"Hotel_Name":"Royal Saint Honore","lat":48.8658792,"lng":2.3298903},{"Hotel_Name":"Landmark London","lat":51.519016,"lng":-0.166267},{"Hotel_Name":"Hilton London Metropole","lat":51.5195688,"lng":-0.170521},{"Hotel_Name":"Best Western Seraphine Kensington Olympia","lat":51.4992791,"lng":-0.1973593},{"Hotel_Name":"Portobello House","lat":51.5199224,"lng":-0.2116636},{"Hotel_Name":"Le Meurice","lat":48.8653685,"lng":2.328218},{"Hotel_Name":"Maison Albar Hotel Paris C line","lat":48.8606187,"lng":2.344401},{"Hotel_Name":"Henry VIII","lat":51.5124655,"lng":-0.182274},{"Hotel_Name":"Goodenough Club","lat":51.525535,"lng":-0.1180354},{"Hotel_Name":"Holiday Inn Paris Montmartre","lat":48.8883,"lng":2.33306},{"Hotel_Name":"Hotel Pulitzer Paris","lat":48.8731996,"lng":2.3425446},{"Hotel_Name":"Hotel Vignon","lat":48.8717146,"lng":2.3261812},{"Hotel_Name":"London Suites","lat":51.5215508,"lng":-0.0469238},{"Hotel_Name":"H tel Aiglon Esprit de France","lat":48.8396623,"lng":2.3300582},{"Hotel_Name":"Sansi Diputacio","lat":41.3882234,"lng":2.1644551},{"Hotel_Name":"Park Plaza Victoria London","lat":51.4942539,"lng":-0.1414756},{"Hotel_Name":"Grange Beauchamp Hotel","lat":51.5203266,"lng":-0.1245891},{"Hotel_Name":"The Franklin Hotel Starhotels Collezione","lat":51.4960283,"lng":-0.1686355},{"Hotel_Name":"Club Quarters Hotel St Paul s","lat":51.5139298,"lng":-0.101126},{"Hotel_Name":"Hotel Elys es Bassano","lat":48.8689307,"lng":2.2974503},{"Hotel_Name":"Hotel Opera Cadet","lat":48.8754371,"lng":2.3434586},{"Hotel_Name":"Phileas Hotel","lat":48.8768854,"lng":2.3270623},{"Hotel_Name":"Holiday Inn Paris Elys es","lat":48.8730437,"lng":2.3161144},{"Hotel_Name":"H tel Beauchamps","lat":48.87096,"lng":2.3091617},{"Hotel_Name":"Best Western Nouvel Orl ans Montparnasse","lat":48.8309896,"lng":2.3297301},{"Hotel_Name":"Hotel Plaza Athenee Paris","lat":48.8661932,"lng":2.3042141},{"Hotel_Name":"Mercure Paris Place d Italie","lat":48.830196,"lng":2.3529539},{"Hotel_Name":"The Nadler Kensington","lat":51.4931086,"lng":-0.190208},{"Hotel_Name":"H tel Da Vinci Spa","lat":48.8565778,"lng":2.3319767},{"Hotel_Name":"XO Hotel","lat":48.8827492,"lng":2.2982782},{"Hotel_Name":"H tel Vernet","lat":48.871859,"lng":2.2978177},{"Hotel_Name":"Mandarin Oriental Paris","lat":48.8671889,"lng":2.326927},{"Hotel_Name":"Rosewood London","lat":51.5173303,"lng":-0.1180966},{"Hotel_Name":"Novotel Paris Vaugirard Montparnasse","lat":48.8399018,"lng":2.3031011},{"Hotel_Name":"Mayflower Hotel Apartments","lat":51.4916677,"lng":-0.1947475},{"Hotel_Name":"Caesar Hotel","lat":51.5134603,"lng":-0.1833081},{"Hotel_Name":"Hotel Xanadu","lat":51.5117907,"lng":-0.306071},{"Hotel_Name":"Draycott Hotel","lat":51.4930097,"lng":-0.159715},{"Hotel_Name":"DoubleTree by Hilton London Docklands Riverside","lat":51.5043483,"lng":-0.0334436},{"Hotel_Name":"Bentley London","lat":51.4928147,"lng":-0.1841753},{"Hotel_Name":"Mercure Paris Arc de Triomphe Etoile","lat":48.8782679,"lng":2.294852},{"Hotel_Name":"Park Grand Paddington Court","lat":51.5135555,"lng":-0.180002},{"Hotel_Name":"The One Barcelona GL","lat":41.3961448,"lng":2.1631674},{"Hotel_Name":"The Zetter Townhouse Marylebone","lat":51.514839,"lng":-0.1586656},{"Hotel_Name":"Forest Hill Paris la Villette","lat":48.8969854,"lng":2.3852745},{"Hotel_Name":"The Levin Hotel","lat":51.4998574,"lng":-0.161717},{"Hotel_Name":"The Tophams Hotel","lat":51.4957436,"lng":-0.1477528},{"Hotel_Name":"Le Pavillon de la Reine Spa","lat":48.8562725,"lng":2.3660412},{"Hotel_Name":"Hidden Hotel by Elegancia","lat":48.8775326,"lng":2.293458},{"Hotel_Name":"Le Roch Hotel Spa","lat":48.8661991,"lng":2.3328826},{"Hotel_Name":"H10 London Waterloo","lat":51.4988817,"lng":-0.1062888},{"Hotel_Name":"San Domenico House","lat":51.4917798,"lng":-0.1616049},{"Hotel_Name":"Bloomsbury Palace Hotel","lat":51.5207945,"lng":-0.1310845},{"Hotel_Name":"Hotel du Petit Moulin","lat":48.8615843,"lng":2.3620652},{"Hotel_Name":"Hotel Atmospheres","lat":48.8485387,"lng":2.3479852},{"Hotel_Name":"H tel La Comtesse by Elegancia","lat":48.853865,"lng":2.3072019},{"Hotel_Name":"Hotel Astra Opera Astotel","lat":48.8718321,"lng":2.3278866},{"Hotel_Name":"Hotel La Villa Saint Germain Des Pr s","lat":48.8553486,"lng":2.3340736},{"Hotel_Name":"Grand Pigalle Hotel","lat":48.880856,"lng":2.3375085},{"Hotel_Name":"Innkeeper s Lodge London Greenwich","lat":51.4801631,"lng":-0.0097201},{"Hotel_Name":"Morgan Mees","lat":52.3743712,"lng":4.8746196},{"Hotel_Name":"Hotel Duminy Vendome","lat":48.8654726,"lng":2.3292934},{"Hotel_Name":"Maison Albar H tel Paris Champs Elys es ex Mac Mahon ","lat":48.8753837,"lng":2.2944651},{"Hotel_Name":"Holiday Inn London Mayfair","lat":51.507746,"lng":-0.1422993},{"Hotel_Name":"H tel Recamier","lat":48.8503493,"lng":2.3344305},{"Hotel_Name":"TRYP Paris Op ra","lat":48.8713619,"lng":2.3426375},{"Hotel_Name":"Royal Saint Michel","lat":48.8528364,"lng":2.3440803},{"Hotel_Name":"Paddington Court Executive Rooms","lat":51.5138357,"lng":-0.1797976},{"Hotel_Name":"Novotel London Paddington","lat":51.519032,"lng":-0.1825943},{"Hotel_Name":"Hyatt Regency Paris Etoile","lat":48.8802782,"lng":2.2843852},{"Hotel_Name":"Relais Saint Jacques","lat":48.8430523,"lng":2.3422519},{"Hotel_Name":"Hotel Cambon","lat":48.866435,"lng":2.3251076},{"Hotel_Name":"Mercure Paris Montmartre Sacr Coeur","lat":48.8852794,"lng":2.3301021},{"Hotel_Name":"Relais Christine","lat":48.8542454,"lng":2.339956},{"Hotel_Name":"Les Matins de Paris Spa","lat":48.878932,"lng":2.3394182},{"Hotel_Name":"Hotel Square","lat":48.851589,"lng":2.2777274},{"Hotel_Name":"H tel Bourgogne Montana by MH","lat":48.8601927,"lng":2.318423},{"Hotel_Name":"The Westin Paris Vend me","lat":48.8657394,"lng":2.3274415},{"Hotel_Name":"Hotel Montalembert","lat":48.8567042,"lng":2.3277805},{"Hotel_Name":"H tel Mathis Elys es","lat":48.8700325,"lng":2.3112736},{"Hotel_Name":"Le Saint Hotel Paris","lat":48.8565421,"lng":2.3303504},{"Hotel_Name":"Hotel Le Squara","lat":48.884165,"lng":2.3328261},{"Hotel_Name":"L Hotel Pergol se Paris","lat":48.8756618,"lng":2.2863468},{"Hotel_Name":"H tel Mayfair Paris","lat":48.8661363,"lng":2.3260648},{"Hotel_Name":"Best Western Plus de Neuville Arc de Triomphe","lat":48.8869128,"lng":2.3004034},{"Hotel_Name":"South Place Hotel","lat":51.5189182,"lng":-0.0866009},{"Hotel_Name":"The Royal Park Hotel","lat":51.5142054,"lng":-0.1766098},{"Hotel_Name":"Holiday Inn Paris Op ra Grands Boulevards","lat":48.8715469,"lng":2.3439622},{"Hotel_Name":"Henley House Hotel","lat":51.4922348,"lng":-0.1914229},{"Hotel_Name":"Holiday Inn London Camden Lock","lat":51.5404555,"lng":-0.1460833},{"Hotel_Name":"DoubleTree by Hilton London Westminster","lat":51.4932356,"lng":-0.1269082},{"Hotel_Name":"Blakemore Hyde Park","lat":51.5129736,"lng":-0.1837431},{"Hotel_Name":"Hyatt Regency London The Churchill","lat":51.5156471,"lng":-0.1572443},{"Hotel_Name":"Rathbone","lat":51.5186801,"lng":-0.1354055},{"Hotel_Name":"Le Belmont Champs Elys es","lat":48.8691984,"lng":2.2979052},{"Hotel_Name":"Duret","lat":48.8752553,"lng":2.286653},{"Hotel_Name":"H tel Elysees Mermoz","lat":48.8715079,"lng":2.3122259},{"Hotel_Name":"Majestic Hotel Spa","lat":48.8703672,"lng":2.2938868},{"Hotel_Name":"BoB Hotel by Elegancia","lat":48.8335233,"lng":2.3191194},{"Hotel_Name":"Comfort Inn Suites Kings Cross St Pancras","lat":51.5289499,"lng":-0.1232979},{"Hotel_Name":"The Queens Gate Hotel","lat":51.4981225,"lng":-0.1799693},{"Hotel_Name":"Grange Langham Court Hotel","lat":51.5189077,"lng":-0.1421957},{"Hotel_Name":"Radisson Blu Edwardian Hampshire","lat":51.509963,"lng":-0.129797},{"Hotel_Name":"Four Seasons Hotel George V Paris","lat":48.8687512,"lng":2.3001692},{"Hotel_Name":"The Marble Arch London","lat":51.5151247,"lng":-0.1600656},{"Hotel_Name":"H tel Fabric","lat":48.8629329,"lng":2.3723823},{"Hotel_Name":"H tel du Minist re","lat":48.8712877,"lng":2.3191903},{"Hotel_Name":"Shangri La Hotel at The Shard London","lat":51.5044972,"lng":-0.0855562},{"Hotel_Name":"Hotel Les Bulles De Paris","lat":48.849147,"lng":2.3471935},{"Hotel_Name":"Acad mie H tel Saint Germain","lat":48.855263,"lng":2.3305901},{"Hotel_Name":"Plaza Tour Eiffel","lat":48.8645647,"lng":2.2821827},{"Hotel_Name":"Park Grand London Kensington","lat":51.4938468,"lng":-0.1917582},{"Hotel_Name":"Rocco Forte Brown s Hotel","lat":51.5090558,"lng":-0.1421661},{"Hotel_Name":"Royal Hotel Champs Elys es","lat":48.8740463,"lng":2.300196},{"Hotel_Name":"Best Western Allegro Nation","lat":48.8430891,"lng":2.4049867},{"Hotel_Name":"Prince de Galles a Luxury Collection hotel Paris","lat":48.869143,"lng":2.3006526},{"Hotel_Name":"The Beaufort","lat":51.4978466,"lng":-0.164156},{"Hotel_Name":"H tel La Parizienne by Elegancia","lat":48.8450894,"lng":2.3209503},{"Hotel_Name":"Madeleine Plaza","lat":48.8710402,"lng":2.3248014},{"Hotel_Name":"Blakes Hotel","lat":51.4892447,"lng":-0.1803196},{"Hotel_Name":"Castille Paris Starhotels Collezione","lat":48.8682978,"lng":2.3268027},{"Hotel_Name":"H tel D Aubusson","lat":48.8547329,"lng":2.3395277},{"Hotel_Name":"Hotel Oscar","lat":48.8694755,"lng":2.3046954},{"Hotel_Name":"Best Western Bretagne Montparnasse","lat":48.8354314,"lng":2.321142},{"Hotel_Name":"The Westbridge Hotel","lat":51.5373904,"lng":-0.0023367},{"Hotel_Name":"Courthouse Hotel Shoreditch","lat":51.5273442,"lng":-0.0796152},{"Hotel_Name":"ME London by Melia","lat":51.511879,"lng":-0.118552},{"Hotel_Name":"Grange Clarendon Hotel","lat":51.5197933,"lng":-0.1241844},{"Hotel_Name":"Hotel Indigo London Kensington","lat":51.4920287,"lng":-0.1917801},{"Hotel_Name":"Novotel Paris 17","lat":48.8920485,"lng":2.3023791},{"Hotel_Name":"Rafayel Hotel Spa","lat":51.4703604,"lng":-0.1779869},{"Hotel_Name":"Norfolk Towers Paddington","lat":51.5162883,"lng":-0.1721078},{"Hotel_Name":"Artus Hotel by MH","lat":48.8535639,"lng":2.3360169},{"Hotel_Name":"Best Western Premier Kapital Op ra","lat":48.8814425,"lng":2.3235592},{"Hotel_Name":"Timhotel Op ra Blanche Fontaine","lat":48.8825781,"lng":2.3334805},{"Hotel_Name":"H tel Amastan Paris","lat":48.8716831,"lng":2.3123759},{"Hotel_Name":"H tel Gustave","lat":48.8502052,"lng":2.289043},{"Hotel_Name":"Best Western Maitrise Hotel Edgware Road","lat":51.521148,"lng":-0.171346},{"Hotel_Name":"Georgian House Hotel","lat":51.490724,"lng":-0.143868},{"Hotel_Name":"Best Western Tour Eiffel Invalides","lat":48.8593152,"lng":2.3104179},{"Hotel_Name":"The Chesterfield Mayfair","lat":51.5076899,"lng":-0.1471358},{"Hotel_Name":"My Chelsea","lat":51.4919083,"lng":-0.1684398},{"Hotel_Name":"Eiffel Trocad ro","lat":48.8613055,"lng":2.2862823},{"Hotel_Name":"Hotel Saint Petersbourg Opera","lat":48.872174,"lng":2.328075},{"Hotel_Name":"H tel Champs lys es Plaza","lat":48.8737043,"lng":2.3061477},{"Hotel_Name":"Melia Paris Tour Eiffel","lat":48.8651994,"lng":2.3045076},{"Hotel_Name":"Timhotel Op ra Grands Magasins","lat":48.8794682,"lng":2.3334957},{"Hotel_Name":"Dukes Hotel","lat":51.5055381,"lng":-0.1396885},{"Hotel_Name":"Radisson Blu Edwardian Berkshire","lat":51.5146025,"lng":-0.1481978},{"Hotel_Name":"Pestana Chelsea Bridge Hotel Spa","lat":51.4815995,"lng":-0.1481053},{"Hotel_Name":"Arbor Hyde Park","lat":51.5126488,"lng":-0.1803795},{"Hotel_Name":"Mercure Paris Porte De Versailles Expo","lat":48.8268251,"lng":2.2912033},{"Hotel_Name":"Great St Helen Hotel","lat":51.5149583,"lng":-0.0823869},{"Hotel_Name":"Hotel Whistler","lat":48.879314,"lng":2.3560185},{"Hotel_Name":"Hotel Georgette","lat":48.8632723,"lng":2.352691},{"Hotel_Name":"Westside Arc de Triomphe Hotel","lat":48.8811741,"lng":2.2948337},{"Hotel_Name":"Etoile Saint Ferdinand","lat":48.8777895,"lng":2.2872498},{"Hotel_Name":"H tel Saint Marc","lat":48.8708863,"lng":2.3382128},{"Hotel_Name":"United Lodge Hotel and Apartments","lat":51.5743549,"lng":-0.0977567},{"Hotel_Name":"H tel Le Walt","lat":48.8547161,"lng":2.306642},{"Hotel_Name":"H tel Le Royal Monceau Raffles Paris","lat":48.8756359,"lng":2.3004967},{"Hotel_Name":"Eccleston Square Hotel","lat":51.4911924,"lng":-0.1449474},{"Hotel_Name":"Nottingham Place Hotel","lat":51.522143,"lng":-0.153385},{"Hotel_Name":"Hotel Claridge Paris","lat":48.8684243,"lng":2.3036244},{"Hotel_Name":"Strand Palace Hotel","lat":51.5110993,"lng":-0.1208673},{"Hotel_Name":"H tel L Echiquier Op ra Paris MGallery by Sofitel","lat":48.8719889,"lng":2.3492913},{"Hotel_Name":"H tel De Castiglione","lat":48.8691758,"lng":2.3205807},{"Hotel_Name":"Hilton London Olympia","lat":51.4967399,"lng":-0.2064723},{"Hotel_Name":"Grange Buckingham Hotel","lat":51.5196124,"lng":-0.1239628},{"Hotel_Name":"The Cleveland","lat":51.5139692,"lng":-0.1828202},{"Hotel_Name":"Dorset Square Hotel","lat":51.5226361,"lng":-0.1602871},{"Hotel_Name":"Edouard 7 Paris Op ra","lat":48.8683133,"lng":2.3330851},{"Hotel_Name":"Renaissance Paris Arc de Triomphe Hotel","lat":48.8772093,"lng":2.2968266},{"Hotel_Name":"Rubens At The Palace","lat":51.4981471,"lng":-0.1436492},{"Hotel_Name":"every hotel Piccadilly","lat":51.5101462,"lng":-0.1315061},{"Hotel_Name":"Millennium Gloucester Hotel London","lat":51.4935083,"lng":-0.1834346},{"Hotel_Name":"Novotel Suites Paris Expo Porte de Versailles","lat":48.827388,"lng":2.305478},{"Hotel_Name":"K K H tel Cayr Saint Germain des Pr s","lat":48.8553117,"lng":2.3254628},{"Hotel_Name":"Fielding Hotel","lat":51.5139315,"lng":-0.1219893},{"Hotel_Name":"DoubleTree by Hilton Hotel London Marble Arch","lat":51.514573,"lng":-0.15666},{"Hotel_Name":"Holiday Inn London West","lat":51.5210117,"lng":-0.2628618},{"Hotel_Name":"The Soho Hotel","lat":51.5139805,"lng":-0.1337948},{"Hotel_Name":"Le Grand H tel de Normandie","lat":48.8759461,"lng":2.3270955},{"Hotel_Name":"Monsieur Cadet Hotel Spa Ex Meyerhold Spa ","lat":48.8742767,"lng":2.3426276},{"Hotel_Name":"H tel de La Tamise Esprit de France","lat":48.8648656,"lng":2.3295756},{"Hotel_Name":"Buddha Bar Hotel Paris","lat":48.8694695,"lng":2.3208564},{"Hotel_Name":"Le A","lat":48.8723844,"lng":2.3088663},{"Hotel_Name":"Holiday Inn Paris Notre Dame","lat":48.8528427,"lng":2.3422256},{"Hotel_Name":"Mercure Paris Opera Garnier","lat":48.8749511,"lng":2.3259532},{"Hotel_Name":"Maison Albar Hotel Paris Op ra Diamond","lat":48.87518,"lng":2.32297},{"Hotel_Name":"Grand H tel Du Palais Royal","lat":48.8630829,"lng":2.3378592},{"Hotel_Name":"Best Western Aulivia Op ra","lat":48.8730552,"lng":2.3540112},{"Hotel_Name":"Renaissance Paris Vendome Hotel","lat":48.8654532,"lng":2.3295231},{"Hotel_Name":"Hotel Park Lane Paris","lat":48.8745879,"lng":2.3188143},{"Hotel_Name":"Little Palace Hotel","lat":48.8675674,"lng":2.3539896},{"Hotel_Name":"Napoleon Paris","lat":48.8743885,"lng":2.2980915},{"Hotel_Name":"Andaz London Liverpool Street","lat":51.5172825,"lng":-0.0812451},{"Hotel_Name":"Novotel London Canary Wharf","lat":51.5011704,"lng":-0.0232607},{"Hotel_Name":"H tel de Lille","lat":48.8585626,"lng":2.3299138},{"Hotel_Name":"H tel Concorde Montparnasse","lat":48.8381079,"lng":2.318669},{"Hotel_Name":"Suites H tel Helzear Montparnasse","lat":48.8346811,"lng":2.3255098},{"Hotel_Name":"Renaissance Paris Republique Hotel Spa","lat":48.8687804,"lng":2.3610196},{"Hotel_Name":"citizenM Tower of London","lat":51.510237,"lng":-0.0764428},{"Hotel_Name":"Chiswick Rooms","lat":51.4937409,"lng":-0.244896},{"Hotel_Name":"Claridge s","lat":51.5125035,"lng":-0.1477438},{"Hotel_Name":"La Suite West Hyde Park","lat":51.5126758,"lng":-0.1867828},{"Hotel_Name":"St James Court A Taj Hotel London","lat":51.4986732,"lng":-0.1376867},{"Hotel_Name":"Elys es R gencia","lat":48.8686434,"lng":2.2984054},{"Hotel_Name":"H tel De Sers Champs Elys es Paris","lat":48.8683593,"lng":2.3002117},{"Hotel_Name":"Hotel le Lapin Blanc","lat":48.8491801,"lng":2.3423357},{"Hotel_Name":"41","lat":51.4981471,"lng":-0.1436492},{"Hotel_Name":"Shaftesbury Suites London Marble Arch","lat":51.515755,"lng":-0.1603335},{"Hotel_Name":"Grange Strathmore Hotel","lat":51.4958184,"lng":-0.1813958},{"Hotel_Name":"H tel R de Paris Boutique Hotel","lat":48.8799239,"lng":2.3288332},{"Hotel_Name":"Villa Panth on","lat":48.8488044,"lng":2.3469889},{"Hotel_Name":"Trinit Haussmann","lat":48.8800565,"lng":2.3342353},{"Hotel_Name":"The RE London Shoreditch","lat":51.531979,"lng":-0.061598},{"Hotel_Name":"London City Suites","lat":51.5206309,"lng":-0.0915341},{"Hotel_Name":"H tel Crayon Rouge by Elegancia","lat":48.8644967,"lng":2.3405415},{"Hotel_Name":"Mercure Paris Opera Grands Boulevards","lat":48.8740668,"lng":2.3502172},{"Hotel_Name":"St George s Hotel Wembley","lat":51.5553678,"lng":-0.2864945},{"Hotel_Name":"Hotel Le Saint Gregoire","lat":48.8471891,"lng":2.3260138},{"Hotel_Name":"Le Mathurin Hotel Spa","lat":48.8732068,"lng":2.3239015},{"Hotel_Name":"H tel Saint Paul Rive Gauche","lat":48.8496819,"lng":2.3402806},{"Hotel_Name":"The Justin James Hotel","lat":51.4202661,"lng":-0.211268},{"Hotel_Name":"Millennium Hotel London Mayfair","lat":51.510574,"lng":-0.1509951},{"Hotel_Name":"H tel de Varenne","lat":48.8570275,"lng":2.3170282},{"Hotel_Name":"A La Villa Madame","lat":48.8488608,"lng":2.3315257},{"Hotel_Name":"The Curtain","lat":51.5237209,"lng":-0.0806178},{"Hotel_Name":"45 Park Lane Dorchester Collection","lat":51.5063709,"lng":-0.1515359},{"Hotel_Name":"Grange Tower Bridge Hotel","lat":51.5115509,"lng":-0.0714919},{"Hotel_Name":"Le Tsuba Hotel","lat":48.8777621,"lng":2.293177},{"Hotel_Name":"St Martins Lane A Morgans Original","lat":51.5104696,"lng":-0.1265824},{"Hotel_Name":"H tel Barri re Le Fouquet s","lat":48.8710709,"lng":2.3013119},{"Hotel_Name":"Novotel London Blackfriars","lat":51.5050165,"lng":-0.1049831},{"Hotel_Name":"Hotel Villa Lafayette Paris IX","lat":48.8760884,"lng":2.3456465},{"Hotel_Name":"Canary Riverside Plaza Hotel","lat":51.5066991,"lng":-0.0280208},{"Hotel_Name":"The Marylebone Hotel","lat":51.5180207,"lng":-0.1500567},{"Hotel_Name":"L Empire Paris","lat":48.8607764,"lng":2.3427564},{"Hotel_Name":"The Zetter Townhouse Clerkenwell","lat":51.5231564,"lng":-0.1035134},{"Hotel_Name":"The Whitechapel","lat":51.5161286,"lng":-0.0624458},{"Hotel_Name":"Suites H tel Helzear Champs Elys es","lat":48.8691399,"lng":2.2981024},{"Hotel_Name":"St George Hotel","lat":51.5182768,"lng":-0.1583511},{"Hotel_Name":"Best Western Premier Op ra Faubourg Ex Hotel Jules ","lat":48.8753359,"lng":2.3414617},{"Hotel_Name":"Pershing Hall","lat":48.8691325,"lng":2.3021659},{"Hotel_Name":"The Premier Notting Hill","lat":51.5127453,"lng":-0.1926437},{"Hotel_Name":"H tel Pont Royal","lat":48.8565629,"lng":2.3273623},{"Hotel_Name":"Le G n ral H tel","lat":48.8662695,"lng":2.3668616},{"Hotel_Name":"H tel Th r se","lat":48.8816306,"lng":2.2992146},{"Hotel_Name":"Best Western Premier Trocadero La Tour","lat":48.8583127,"lng":2.2795075},{"Hotel_Name":"Holiday Inn London Whitechapel","lat":51.5154006,"lng":-0.0572364},{"Hotel_Name":"Washington Mayfair Hotel","lat":51.5060237,"lng":-0.151078},{"Hotel_Name":"Radisson Blu Edwardian New Providence Wharf","lat":51.5065578,"lng":-0.004514},{"Hotel_Name":"Hilton London Tower Bridge","lat":51.504575,"lng":-0.082675},{"Hotel_Name":"Novotel London Wembley","lat":51.5611271,"lng":-0.2787261},{"Hotel_Name":"Le Relais M dicis","lat":48.8497618,"lng":2.3392336},{"Hotel_Name":"Les Jardins De La Villa Spa","lat":48.8801757,"lng":2.2859534},{"Hotel_Name":"Warwick Paris Former Warwick Champs Elysees ","lat":48.8722019,"lng":2.3030866},{"Hotel_Name":"Park Hyatt Paris Vendome","lat":48.8688155,"lng":2.3305236},{"Hotel_Name":"My Home In Paris","lat":48.8636049,"lng":2.3688352},{"Hotel_Name":"Mercure Paris Op ra Faubourg Montmartre","lat":48.8729639,"lng":2.3444899},{"Hotel_Name":"Best Western Plus Elys e Secret","lat":48.8701247,"lng":2.311141},{"Hotel_Name":"Villa Beaumarchais","lat":48.8589516,"lng":2.3670407},{"Hotel_Name":"H tel Mansart Esprit de France","lat":48.8684776,"lng":2.3298238},{"Hotel_Name":"Holiday Inn Paris Gare de l Est","lat":48.8758981,"lng":2.3590504},{"Hotel_Name":"Le Cinq Codet","lat":48.8547869,"lng":2.3084819},{"Hotel_Name":"La Maison Favart","lat":48.870808,"lng":2.3372737},{"Hotel_Name":"Le Pradey","lat":48.8645309,"lng":2.3315532},{"Hotel_Name":"Threadneedles Autograph Collection","lat":51.5140208,"lng":-0.0854919},{"Hotel_Name":"Sanderson A Morgans Hotel","lat":51.5174853,"lng":-0.1372109},{"Hotel_Name":"The Arch London","lat":51.5159214,"lng":-0.1598794},{"Hotel_Name":"Commodore Hotel","lat":51.5124496,"lng":-0.1795215},{"Hotel_Name":"Golden Tulip Washington Opera","lat":48.866242,"lng":2.3373169},{"Hotel_Name":"Residence Henri IV","lat":48.8481917,"lng":2.3490316},{"Hotel_Name":"Hotel du Collectionneur Arc de Triomphe","lat":48.8769204,"lng":2.3069132},{"Hotel_Name":"The Westbourne Hyde Park","lat":51.5131074,"lng":-0.1778707},{"Hotel_Name":"Hotel Le Mareuil","lat":48.8659899,"lng":2.3674149},{"Hotel_Name":"Mercure Paris Champs Elys es","lat":48.8699731,"lng":2.2909401},{"Hotel_Name":"Best Western Le 18 Paris","lat":48.8966167,"lng":2.3434843},{"Hotel_Name":"The Lodge Hotel Putney","lat":51.4572991,"lng":-0.2055425},{"Hotel_Name":"Shaftesbury Hyde Park International","lat":51.5123968,"lng":-0.186124},{"Hotel_Name":"The Montcalm At Brewery London City","lat":51.5208155,"lng":-0.0915319},{"Hotel_Name":"H tel Powers","lat":48.8691409,"lng":2.3031503},{"Hotel_Name":"Villa Lut ce Port Royal","lat":48.8364204,"lng":2.3603332},{"Hotel_Name":"Oceania Paris Porte De Versailles","lat":48.8303023,"lng":2.2842872},{"Hotel_Name":"BEST WESTERN Maitrise Hotel Maida Vale","lat":51.5366053,"lng":-0.1919832},{"Hotel_Name":"Novotel London City South","lat":51.5054832,"lng":-0.0951196},{"Hotel_Name":"The Dorchester Dorchester Collection","lat":51.5074007,"lng":-0.1524593},{"Hotel_Name":"Mercure Paris Bastille Marais","lat":48.8571207,"lng":2.3805581},{"Hotel_Name":"Hilton London Angel Islington","lat":51.5360906,"lng":-0.1048176},{"Hotel_Name":"Fifty Four Boutique Hotel","lat":51.4963008,"lng":-0.1796853},{"Hotel_Name":"Chateau Frontenac","lat":48.8689468,"lng":2.3026559},{"Hotel_Name":"H tel Du Jeu De Paume","lat":48.8520377,"lng":2.3557092},{"Hotel_Name":"The Sumner Hotel","lat":51.5152892,"lng":-0.160898},{"Hotel_Name":"W12 Rooms","lat":51.5045326,"lng":-0.2191174},{"Hotel_Name":"Renaissance Paris Le Parc Trocadero Hotel","lat":48.8673099,"lng":2.2856528},{"Hotel_Name":"Shaftesbury Premier London Paddington","lat":51.5153672,"lng":-0.1783271},{"Hotel_Name":"Hotel Carlton s Montmartre","lat":48.8819068,"lng":2.3410005},{"Hotel_Name":"Hotel Monge","lat":48.8447938,"lng":2.3524462},{"Hotel_Name":"Mimi s Hotel Soho","lat":51.5140329,"lng":-0.1320651},{"Hotel_Name":"Victoires Opera","lat":48.8648997,"lng":2.3469433},{"Hotel_Name":"Holiday Inn London Oxford Circus","lat":51.516843,"lng":-0.1495574},{"Hotel_Name":"Dorsett Shepherds Bush","lat":51.5039399,"lng":-0.2244232},{"Hotel_Name":"New Linden Hotel","lat":51.5133832,"lng":-0.1926617},{"Hotel_Name":"Le Burgundy Paris","lat":48.8680055,"lng":2.3260075},{"Hotel_Name":"Hotel Sezz Paris","lat":48.8566336,"lng":2.2852607},{"Hotel_Name":"Hotel Montaigne","lat":48.865467,"lng":2.3038811},{"Hotel_Name":"Hotel Royal Elys es","lat":48.8729666,"lng":2.2926226},{"Hotel_Name":"Mercure Paris Bercy Biblioth que","lat":48.8370334,"lng":2.372322},{"Hotel_Name":"Hazlitt s","lat":51.5143447,"lng":-0.1318157},{"Hotel_Name":"Park Plaza London Waterloo","lat":51.4982412,"lng":-0.1134715},{"Hotel_Name":"citizenM London Shoreditch","lat":51.5241373,"lng":-0.0786983},{"Hotel_Name":"H tel Balzac","lat":48.8732785,"lng":2.3004174},{"Hotel_Name":"Victoria Palace Hotel","lat":48.8457587,"lng":2.3243071},{"Hotel_Name":"Hotel Eug ne en Ville","lat":48.8750119,"lng":2.3416769},{"Hotel_Name":"Newhotel Roblin","lat":48.8714152,"lng":2.3239679},{"Hotel_Name":"Le Relais Montmartre","lat":48.8854538,"lng":2.3335809},{"Hotel_Name":"Amarante Beau Manoir","lat":48.870994,"lng":2.3235329},{"Hotel_Name":"Hotel Maison FL","lat":48.8396395,"lng":2.2663056},{"Hotel_Name":"Balmoral Champs Elys es","lat":48.8759855,"lng":2.293938},{"Hotel_Name":"The Chess Hotel","lat":48.8716017,"lng":2.3349768},{"Hotel_Name":"AC Hotel Paris Porte Maillot by Marriott","lat":48.8820046,"lng":2.2818538},{"Hotel_Name":"B Montmartre","lat":48.883631,"lng":2.3257643},{"Hotel_Name":"H tel Regent s Garden","lat":48.8797513,"lng":2.2919634},{"Hotel_Name":"Mercure Paris 15 Porte de Versailles","lat":48.8382542,"lng":2.2903494},{"Hotel_Name":"Hotel Le Placide Saint Germain Des Pr s","lat":48.8498439,"lng":2.3244253},{"Hotel_Name":"Hotel VIU Milan","lat":45.488764,"lng":9.183057},{"Hotel_Name":"Sofitel London St James","lat":51.5076044,"lng":-0.132266},{"Hotel_Name":"Baglioni Hotel London The Leading Hotels of the World","lat":51.5017224,"lng":-0.1846243},{"Hotel_Name":"DoubleTree by Hilton London Islington","lat":51.5322508,"lng":-0.1095714},{"Hotel_Name":"Nell Hotel Suites","lat":48.8741002,"lng":2.3426357},{"Hotel_Name":"Rydges Kensington Hotel","lat":51.4956883,"lng":-0.1827878},{"Hotel_Name":"Club Quarters Hotel Lincoln s Inn Fields","lat":51.5160988,"lng":-0.1181749},{"Hotel_Name":"Novotel Paris Centre Tour Eiffel","lat":48.8500283,"lng":2.2834126},{"Hotel_Name":"Best Western Plus 61 Paris Nation Hotel","lat":48.8465653,"lng":2.4102405},{"Hotel_Name":"Hotel Monsieur","lat":48.8735135,"lng":2.3217457},{"Hotel_Name":"Hotel Saint Dominique","lat":48.8599998,"lng":2.3087425},{"Hotel_Name":"Clayton Hotel Chiswick","lat":51.4924184,"lng":-0.2784701},{"Hotel_Name":"Park Plaza London Park Royal","lat":51.527262,"lng":-0.282992},{"Hotel_Name":"Hotel Malte Astotel","lat":48.8672474,"lng":2.33738},{"Hotel_Name":"Best Western Palm Hotel","lat":51.5634756,"lng":-0.2042758},{"Hotel_Name":"InterContinental Paris Avenue Marceau","lat":48.8706373,"lng":2.2982095},{"Hotel_Name":"Mercure Tour Eiffel Grenelle","lat":48.850448,"lng":2.2928845},{"Hotel_Name":"Mercure Paris Bastille Saint Antoine","lat":48.849574,"lng":2.3798518},{"Hotel_Name":"Boutique H tel Konfidentiel","lat":48.8612535,"lng":2.3426256},{"Hotel_Name":"The Piccadilly London West End","lat":51.5121957,"lng":-0.1318384},{"Hotel_Name":"R Kipling by Happyculture","lat":48.8820838,"lng":2.3315849},{"Hotel_Name":"Hotel Des Saints Peres Esprit de France","lat":48.8534026,"lng":2.3299043},{"Hotel_Name":"Best Western Hotel Montmartre Sacr Coeur","lat":48.888539,"lng":2.3498459},{"Hotel_Name":"Kingsway Hall Hotel","lat":51.5158643,"lng":-0.1200625},{"Hotel_Name":"Mandarin Oriental Hyde Park London","lat":51.5022081,"lng":-0.1599428},{"Hotel_Name":"H tel Jos phine by Happyculture","lat":48.8823141,"lng":2.3316688},{"Hotel_Name":"Radisson Blu Edwardian Vanderbilt","lat":51.4953691,"lng":-0.1818966},{"Hotel_Name":"Hotel Le Chat Noir","lat":48.8836255,"lng":2.3340538},{"Hotel_Name":"Hotel Cafe Royal","lat":51.5100916,"lng":-0.1359431},{"Hotel_Name":"Mercure Vaugirard Paris Porte De Versailles","lat":48.8330649,"lng":2.2879617},{"Hotel_Name":"Grange Rochester Hotel","lat":51.4942654,"lng":-0.1366026},{"Hotel_Name":"Gainsborough Hotel","lat":51.4948416,"lng":-0.1772056},{"Hotel_Name":"H tel Bel Ami","lat":48.8550298,"lng":2.3332104},{"Hotel_Name":"St James Hotel Club Mayfair","lat":51.5061587,"lng":-0.1402803},{"Hotel_Name":"Apex London Wall Hotel","lat":51.5160484,"lng":-0.0880181},{"Hotel_Name":"Seraphine Kensington Gardens Hotel","lat":51.5021027,"lng":-0.187901},{"Hotel_Name":"Hotel de Nell","lat":48.8732788,"lng":2.3466576},{"Hotel_Name":"9Hotel Republique","lat":48.8708419,"lng":2.3605864},{"Hotel_Name":"Goralska R sidences H tel Paris Bastille","lat":48.8482842,"lng":2.3657251},{"Hotel_Name":"Club Quarters Hotel Gracechurch","lat":51.5127964,"lng":-0.0847973},{"Hotel_Name":"Grange Blooms Hotel","lat":51.5196913,"lng":-0.1254243},{"Hotel_Name":"DoubleTree by Hilton Hotel London Tower of London","lat":51.5108412,"lng":-0.0780581},{"Hotel_Name":"H tel Baume","lat":48.8501522,"lng":2.3392782},{"Hotel_Name":"Hotel West End","lat":48.8671391,"lng":2.3038447},{"Hotel_Name":"Arioso","lat":48.8746066,"lng":2.3167195},{"Hotel_Name":"H tel Lancaster Paris Champs Elys es","lat":48.8723438,"lng":2.3033378},{"Hotel_Name":"Melia Paris Notre Dame","lat":48.8515198,"lng":2.3486511},{"Hotel_Name":"Hotel Mademoiselle","lat":48.8772493,"lng":2.3543043},{"Hotel_Name":"Hotel Les Bains Paris","lat":48.863828,"lng":2.3519345},{"Hotel_Name":"Hotel Ares Eiffel","lat":48.8503276,"lng":2.2982022},{"Hotel_Name":"Francois 1er","lat":48.8701887,"lng":2.2997281},{"Hotel_Name":"H tel Montmartre Mon Amour","lat":48.886687,"lng":2.3449332},{"Hotel_Name":"Hotel Monceau Wagram","lat":48.8808779,"lng":2.2989756},{"Hotel_Name":"Novotel London Excel","lat":51.5077198,"lng":0.0229805},{"Hotel_Name":"Paris Marriott Champs Elysees Hotel","lat":48.8711365,"lng":2.3050482},{"Hotel_Name":"Mercure London Bridge","lat":51.5052587,"lng":-0.099176},{"Hotel_Name":"H tel Exquis by Elegancia","lat":48.8536854,"lng":2.3805796},{"Hotel_Name":"Grange Wellington Hotel","lat":51.4944319,"lng":-0.1363756},{"Hotel_Name":"Les Jardins Du Marais","lat":48.8605219,"lng":2.3680239},{"Hotel_Name":"Hotel Cavendish","lat":51.5220522,"lng":-0.132414},{"Hotel_Name":"Park Grand London Hyde Park","lat":51.5157316,"lng":-0.1802179},{"Hotel_Name":"Shaftesbury Metropolis London Hyde Park","lat":51.5166887,"lng":-0.1706147},{"Hotel_Name":"Radisson Blu Champs Elys es Paris","lat":48.8719212,"lng":2.2971404},{"Hotel_Name":"Hotel Eiffel Blomet","lat":48.8416787,"lng":2.3022862},{"Hotel_Name":"Holiday Inn Paris Gare Montparnasse","lat":48.8382916,"lng":2.3230188},{"Hotel_Name":"H tel Thoumieux","lat":48.8595985,"lng":2.3088076},{"Hotel_Name":"The Exhibitionist Hotel","lat":51.4947754,"lng":-0.177789},{"Hotel_Name":"Auteuil Tour Eiffel","lat":48.8506499,"lng":2.2750873},{"Hotel_Name":"Ten Manchester Street Hotel","lat":51.5188,"lng":-0.153839},{"Hotel_Name":"Mercure London Hyde Park","lat":51.5151149,"lng":-0.1743857},{"Hotel_Name":"London Bridge Hotel","lat":51.5052188,"lng":-0.088166},{"Hotel_Name":"Derby Alma","lat":48.8605031,"lng":2.3006606},{"Hotel_Name":"The Beaumont Hotel","lat":51.513055,"lng":-0.152257},{"Hotel_Name":"Mercure Paris Gobelins Place d Italie","lat":48.8321231,"lng":2.3536172},{"Hotel_Name":"H tel Original Paris","lat":48.8546989,"lng":2.3691899},{"Hotel_Name":"The Grand at Trafalgar Square","lat":51.506935,"lng":-0.126012},{"Hotel_Name":"Club Quarters Hotel Trafalgar Square","lat":51.506935,"lng":-0.126012},{"Hotel_Name":"The Laslett","lat":51.5095259,"lng":-0.1967234},{"Hotel_Name":"Novotel Paris Les Halles","lat":48.8607299,"lng":2.3465326},{"Hotel_Name":"Melia Paris Vendome","lat":48.8668228,"lng":2.3257729},{"Hotel_Name":"Chambiges Elys es","lat":48.8668048,"lng":2.3039465},{"Hotel_Name":"MARQUIS Faubourg St Honor Relais Ch teaux","lat":48.8698184,"lng":2.3208729},{"Hotel_Name":"H tel Le Bellechasse Saint Germain","lat":48.8597024,"lng":2.3239701},{"Hotel_Name":"Hotel Verneuil Saint Germain","lat":48.8573706,"lng":2.3314669},{"Hotel_Name":"Hotel Daniel Paris","lat":48.8728492,"lng":2.3073663},{"Hotel_Name":"Residence Du Roy","lat":48.8657687,"lng":2.3090386},{"Hotel_Name":"La Maison Champs Elys es","lat":48.866676,"lng":2.3089908},{"Hotel_Name":"H tel Arvor Saint Georges","lat":48.8785454,"lng":2.3384866},{"Hotel_Name":"The Belgrave Hotel","lat":51.4901051,"lng":-0.1381355},{"Hotel_Name":"TheWesley","lat":51.5265353,"lng":-0.1361682},{"Hotel_Name":"Le M ridien Etoile","lat":48.8794646,"lng":2.2849548},{"Hotel_Name":"The Hoxton Shoreditch","lat":51.5255136,"lng":-0.082927},{"Hotel_Name":"The Cavendish London","lat":51.5077459,"lng":-0.1378733},{"Hotel_Name":"Avo Hotel","lat":51.5460628,"lng":-0.0700817},{"Hotel_Name":"Hotel 82 London","lat":51.5195857,"lng":-0.1584803},{"Hotel_Name":"La Clef Tour Eiffel","lat":48.8647019,"lng":2.2886425},{"Hotel_Name":"Best Western Plus Seraphine Hammersmith Hotel","lat":51.4926269,"lng":-0.2288598},{"Hotel_Name":"La Chambre du Marais","lat":48.8636168,"lng":2.3607998},{"Hotel_Name":"Novotel Paris Centre Bercy","lat":48.8384558,"lng":2.3805885},{"Hotel_Name":"The Zetter Hotel","lat":51.522672,"lng":-0.1036841},{"Hotel_Name":"Grosvenor House Suites by Jumeirah Living","lat":51.509841,"lng":-0.1552193},{"Hotel_Name":"Hotel OFF Paris Seine","lat":48.8427364,"lng":2.3672171},{"Hotel_Name":"Snob Hotel by Elegancia","lat":48.8622723,"lng":2.3495707},{"Hotel_Name":"Sofitel Paris Baltimore Tour Eiffel","lat":48.8663089,"lng":2.289609},{"Hotel_Name":"88 Studios","lat":51.4992789,"lng":-0.2090733},{"Hotel_Name":"Adria Boutique Hotel","lat":51.4933372,"lng":-0.1788931},{"Hotel_Name":"Best Western Premier Faubourg 88","lat":48.8776756,"lng":2.3493159},{"Hotel_Name":"Hotel De Vigny","lat":48.8738672,"lng":2.3005894},{"Hotel_Name":"Sydney House Chelsea","lat":51.4910062,"lng":-0.1717691},{"Hotel_Name":"Radisson Blu Edwardian Bloomsbury Street","lat":51.517608,"lng":-0.1276253},{"Hotel_Name":"H tel Le Relais Saint Germain","lat":48.8519208,"lng":2.338878},{"Hotel_Name":"Hotel Moonlight","lat":51.4940285,"lng":-0.1910497},{"Hotel_Name":"Villa Alessandra","lat":48.8794223,"lng":2.2957628},{"Hotel_Name":"Ibis Styles Paris Gare Saint Lazare","lat":48.8796596,"lng":2.3209155},{"Hotel_Name":"Golden Tulip Opera de Noailles","lat":48.8696173,"lng":2.3346428},{"Hotel_Name":"Best Western Premier Op ra Li ge","lat":48.8795947,"lng":2.3280695},{"Hotel_Name":"H tel Cristal Champs Elys es","lat":48.8726814,"lng":2.3020866},{"Hotel_Name":"Best Western Le Jardin de Cluny","lat":48.8497553,"lng":2.3467616},{"Hotel_Name":"Le Pigalle Hotel","lat":48.8816073,"lng":2.3371648},{"Hotel_Name":"Relais H tel du Vieux Paris","lat":48.8538608,"lng":2.3429487},{"Hotel_Name":"Victoire Germain","lat":48.853299,"lng":2.337993},{"Hotel_Name":"Le Littr ","lat":48.8454447,"lng":2.3242814},{"Hotel_Name":"Hotel Le Sainte Beuve","lat":48.8438998,"lng":2.3294858},{"Hotel_Name":"Hotel Villa Saxe Eiffel","lat":48.849758,"lng":2.3095213},{"Hotel_Name":"Thistle Hyde Park","lat":51.5112451,"lng":-0.1808938},{"Hotel_Name":"Holiday Inn Paris Saint Germain des Pr s","lat":48.846837,"lng":2.3258066},{"Hotel_Name":"Hotel Spa La Belle Juliette","lat":48.8474426,"lng":2.3223783},{"Hotel_Name":"Rochester Champs Elysees","lat":48.8724945,"lng":2.3091549},{"Hotel_Name":"DoubleTree by Hilton London West End","lat":51.5201065,"lng":-0.1221393},{"Hotel_Name":"Hotel d Orsay Esprit de France","lat":48.8603599,"lng":2.3230778},{"Hotel_Name":"Mercure Paris Opera Louvre","lat":48.8710895,"lng":2.3393461},{"Hotel_Name":"La Villa des Ternes","lat":48.8803479,"lng":2.2858242},{"Hotel_Name":"Holiday Inn London Kensington Forum","lat":51.4942305,"lng":-0.1851141},{"Hotel_Name":"Radisson Blu Edwardian Kenilworth","lat":51.5179725,"lng":-0.1280495},{"Hotel_Name":"H tel Monna Lisa Champs Elys es","lat":48.874853,"lng":2.3245798},{"Hotel_Name":"H tel Waldorf Trocad ro","lat":48.8672694,"lng":2.2878666},{"Hotel_Name":"Best Western Amiral Hotel","lat":48.8252307,"lng":2.3569005},{"Hotel_Name":"Hotel Les Th tres","lat":48.8694768,"lng":2.3515065},{"Hotel_Name":"Mercure Paris 17 me Saint Lazare Monceau","lat":48.8837472,"lng":2.3186342},{"Hotel_Name":"Melia White House Hotel","lat":51.5298597,"lng":-0.1444623},{"Hotel_Name":"Sir Albert Hotel","lat":52.3544507,"lng":4.8875036},{"Hotel_Name":"The Waldorf Hilton","lat":51.5131979,"lng":-0.1174504},{"Hotel_Name":"Corendon Vitality Hotel Amsterdam","lat":52.3466449,"lng":4.8310984},{"Hotel_Name":"Hotel Bellevue Wien","lat":48.2264063,"lng":16.3600628},{"Hotel_Name":"Maison Borella","lat":45.4521067,"lng":9.1758135},{"Hotel_Name":"Hotel Am Konzerthaus Vienna MGallery by Sofitel","lat":48.1996129,"lng":16.3773546},{"Hotel_Name":"Park Hyatt Vienna","lat":48.2105243,"lng":16.3683592},{"Hotel_Name":"Hilton Vienna","lat":48.2062268,"lng":16.3833767},{"Hotel_Name":"Catalonia Port","lat":41.378751,"lng":2.17873},{"Hotel_Name":"Hampshire Hotel Rembrandt Square Amsterdam","lat":52.3663466,"lng":4.8985764},{"Hotel_Name":"Eurostars Angli","lat":41.4031654,"lng":2.1231637},{"Hotel_Name":"Pillows Anna van den Vondel Amsterdam","lat":52.3607413,"lng":4.8695315},{"Hotel_Name":"Schlosshotel R mischer Kaiser","lat":48.2040859,"lng":16.3725046},{"Hotel_Name":"Hotel Mailberger Hof","lat":48.204183,"lng":16.3726664},{"Hotel_Name":"Best Western Delphi Hotel","lat":52.3504558,"lng":4.8770194},{"Hotel_Name":"Apollofirst Boutique Hotel","lat":52.350396,"lng":4.8756404},{"Hotel_Name":"Hilton Amsterdam","lat":52.351381,"lng":4.872723},{"Hotel_Name":"Apollo Hotel Amsterdam","lat":52.3486098,"lng":4.8844292},{"Hotel_Name":"Catalonia Catedral","lat":41.3846637,"lng":2.1740902},{"Hotel_Name":"Element Amsterdam","lat":52.3312406,"lng":4.8774466},{"Hotel_Name":"Axel Hotel Barcelona Urban Spa Adults Only","lat":41.3873478,"lng":2.1603987},{"Hotel_Name":"Cram","lat":41.3880549,"lng":2.1599602},{"Hotel_Name":"Urban Lodge Hotel","lat":52.3856494,"lng":4.834443},{"Hotel_Name":"Novotel Wien City","lat":48.2134246,"lng":16.3831309},{"Hotel_Name":"The Levante Parliament A Design Hotel","lat":48.2083518,"lng":16.354532},{"Hotel_Name":"Room Mate Gerard","lat":41.3919114,"lng":2.1765438},{"Hotel_Name":"H10 Marina Barcelona","lat":41.393227,"lng":2.1927427},{"Hotel_Name":"Barcelona Princess","lat":41.4109715,"lng":2.2186535},{"Hotel_Name":"Novotel Barcelona City","lat":41.4038774,"lng":2.1911894},{"Hotel_Name":"The Gates Diagonal Barcelona","lat":41.4036219,"lng":2.1902808},{"Hotel_Name":"AC Hotel Diagonal L Illa a Marriott Lifestyle Hotel","lat":41.3899609,"lng":2.135684},{"Hotel_Name":"Wilson Boutique Hotel","lat":41.3944029,"lng":2.150194},{"Hotel_Name":"NH Hesperia Barcelona Presidente","lat":41.3941338,"lng":2.1489569},{"Hotel_Name":"Hilton Barcelona","lat":41.388682,"lng":2.1316368},{"Hotel_Name":"Vincci Mae","lat":41.3933943,"lng":2.1461315},{"Hotel_Name":"Fairmont Rey Juan Carlos I","lat":41.3835246,"lng":2.1096141},{"Hotel_Name":"Pullman Barcelona Skipper","lat":41.3860183,"lng":2.19473},{"Hotel_Name":"Hotel Ciutadella Barcelona","lat":41.3837583,"lng":2.1846933},{"Hotel_Name":"Catalonia Atenas","lat":41.4110056,"lng":2.1866009},{"Hotel_Name":"Tryp Barcelona Apolo Hotel","lat":41.3747031,"lng":2.1707106},{"Hotel_Name":"Sansi Pedralbes","lat":41.39367,"lng":2.1115418},{"Hotel_Name":"Crowne Plaza Barcelona Fira Center","lat":41.3725246,"lng":2.1540788},{"Hotel_Name":"Gran Hotel Torre Catalunya","lat":41.3795572,"lng":2.1425457},{"Hotel_Name":"H10 Itaca","lat":41.3810311,"lng":2.1455516},{"Hotel_Name":"Hotel Abbot","lat":41.3815028,"lng":2.1449138},{"Hotel_Name":"Sercotel Amister Art Hotel Barcelona","lat":41.3844072,"lng":2.1514584},{"Hotel_Name":"Melia Barcelona Sarri ","lat":41.391058,"lng":2.141706},{"Hotel_Name":"ABaC Restaurant Hotel Barcelona GL Monumento","lat":41.4106944,"lng":2.136294},{"Hotel_Name":"Col n Hotel Barcelona","lat":41.3849613,"lng":2.1756666},{"Hotel_Name":"Hotel SB Icaria Barcelona","lat":41.3935591,"lng":2.1993915},{"Hotel_Name":"Hotel Barcelona Universal","lat":41.375237,"lng":2.1684058},{"Hotel_Name":"Aparthotel Arai 4 Superior","lat":41.3807517,"lng":2.1772425},{"Hotel_Name":"NH Collection Barcelona Podium","lat":41.39378,"lng":2.17493},{"Hotel_Name":"Hotel Ronda Lesseps","lat":41.408641,"lng":2.1478143},{"Hotel_Name":"Hotel Barcelona Center","lat":41.3917169,"lng":2.1592614},{"Hotel_Name":"Olivia Balmes Hotel","lat":41.392095,"lng":2.158493},{"Hotel_Name":"Catalonia Diagonal Centro","lat":41.3938632,"lng":2.1568039},{"Hotel_Name":"The Capital","lat":51.4997486,"lng":-0.1615242},{"Hotel_Name":"Vienna Sporthotel","lat":48.191373,"lng":16.4082294},{"Hotel_Name":"Megaro Hotel","lat":51.5294411,"lng":-0.1233745},{"Hotel_Name":"Hotel De Hallen","lat":52.3677568,"lng":4.8682174},{"Hotel_Name":"AC Hotel Victoria Suites a Marriott Lifestyle Hotel","lat":41.3893478,"lng":2.1209755},{"Hotel_Name":"Catalonia Plaza Catalunya","lat":41.3865289,"lng":2.1682919},{"Hotel_Name":"Hotel Regina","lat":41.3858891,"lng":2.1681652},{"Hotel_Name":"Hotel Pulitzer","lat":41.386136,"lng":2.1682914},{"Hotel_Name":"Hotel Alimara","lat":41.4337561,"lng":2.147327},{"Hotel_Name":"Thistle Holborn The Kingsley","lat":51.5179659,"lng":-0.1234343},{"Hotel_Name":"Hotel Boltzmann","lat":48.2216779,"lng":16.3567111},{"Hotel_Name":"The Westbury A Luxury Collection Hotel Mayfair London","lat":51.5144418,"lng":-0.146432},{"Hotel_Name":"Petit Palace Boqueria Garden","lat":41.3812223,"lng":2.1739622},{"Hotel_Name":"Mercer House B ria BCN","lat":41.3846844,"lng":2.1791065},{"Hotel_Name":"Hotel ViennArt am Museumsquartier","lat":48.2035677,"lng":16.356445},{"Hotel_Name":"Crowne Plaza London Battersea","lat":51.4689559,"lng":-0.1787256},{"Hotel_Name":"Amba Hotel Marble Arch","lat":51.5144004,"lng":-0.1565506},{"Hotel_Name":"Taj 51 Buckingham Gate Suites and Residences","lat":51.498861,"lng":-0.1374897},{"Hotel_Name":"Hotel Sans Souci Wien","lat":48.204576,"lng":16.3563661},{"Hotel_Name":"Catalonia La Pedrera","lat":41.3986093,"lng":2.1625037},{"Hotel_Name":"Ohla Eixample","lat":41.3944574,"lng":2.1564353},{"Hotel_Name":"Jumeirah Carlton Tower","lat":51.4973568,"lng":-0.1576728},{"Hotel_Name":"Hotel Villa Emilia","lat":41.3802469,"lng":2.1541149},{"Hotel_Name":"TWO Hotel Barcelona by Axel 4 Sup Adults Only","lat":41.37913,"lng":2.1561186},{"Hotel_Name":"Hotel Best Western PLUS Alfa Aeropuerto","lat":41.3283758,"lng":2.1129638},{"Hotel_Name":"AC Hotel Irla a Marriott Lifestyle Hotel","lat":41.3948175,"lng":2.1434702},{"Hotel_Name":"Hotel Barcelona Catedral","lat":41.384829,"lng":2.1751277},{"Hotel_Name":"Arenas Atiram Hotels","lat":41.3904305,"lng":2.1262314},{"Hotel_Name":"Holiday Inn London Regent s Park","lat":51.5222472,"lng":-0.1426128},{"Hotel_Name":"Senator Barcelona Spa Hotel","lat":41.3777977,"lng":2.1135971},{"Hotel_Name":"Thistle Euston","lat":51.5291423,"lng":-0.1372782},{"Hotel_Name":"The Connaught","lat":51.5101556,"lng":-0.1496314},{"Hotel_Name":"Room Mate Anna","lat":41.3929366,"lng":2.1653954},{"Hotel_Name":"Gran Hotel La Florida","lat":41.4253332,"lng":2.1211028},{"Hotel_Name":"Ayre Hotel Caspe","lat":41.3961021,"lng":2.1794688},{"Hotel_Name":"Doubletree By Hilton London Greenwich","lat":51.474469,"lng":-0.019428},{"Hotel_Name":"Chasse Hotel","lat":52.3696719,"lng":4.8614475},{"Hotel_Name":"The Chelsea Harbour Hotel","lat":51.4756558,"lng":-0.1813888},{"Hotel_Name":"Palais Coburg Residenz","lat":48.2058584,"lng":16.3766545},{"Hotel_Name":"Zenit Borrell","lat":41.3859873,"lng":2.1514021},{"Hotel_Name":"U232 Hotel","lat":41.3895237,"lng":2.1490307},{"Hotel_Name":"Eurostars Monumental","lat":41.4006653,"lng":2.1787089},{"Hotel_Name":"Pestana Arena Barcelona","lat":41.376801,"lng":2.1460443},{"Hotel_Name":"Grange City Hotel","lat":51.5110114,"lng":-0.0771251},{"Hotel_Name":"Holiday Inn London Bloomsbury","lat":51.5241248,"lng":-0.1258066},{"Hotel_Name":"The Mirror Barcelona","lat":41.3930406,"lng":2.1545393},{"Hotel_Name":"Worldhotel Cristoforo Colombo","lat":45.4758842,"lng":9.205791},{"Hotel_Name":"IH Hotels Milano Puccini","lat":45.4794406,"lng":9.2096756},{"Hotel_Name":"Best Western Hotel City","lat":45.4858877,"lng":9.2042827},{"Hotel_Name":"Ch teau Monfort Relais Ch teaux","lat":45.4682358,"lng":9.2073799},{"Hotel_Name":"Palazzo Parigi Hotel Grand Spa Milano","lat":45.473348,"lng":9.1910733},{"Hotel_Name":"Hotel Lloyd","lat":45.4580781,"lng":9.1924205},{"Hotel_Name":"Hotel Romana Residence","lat":45.4572218,"lng":9.1937008},{"Hotel_Name":"Hotel Crivi s","lat":45.4529643,"lng":9.1962217},{"Hotel_Name":"Hotel Galileo","lat":45.4642651,"lng":9.1960569},{"Hotel_Name":"Carlyle Brera Hotel","lat":45.4769923,"lng":9.1844899},{"Hotel_Name":"Boscolo Milano Autograph Collection","lat":45.46676,"lng":9.194293},{"Hotel_Name":"Mokinba Hotels King","lat":45.4656023,"lng":9.1778675},{"Hotel_Name":"Qualys Hotel Nasco","lat":45.4848809,"lng":9.1596461},{"Hotel_Name":"Enterprise Hotel Design Boutique","lat":45.4867005,"lng":9.1575137},{"Hotel_Name":"Tryp Barcelona Condal Mar Hotel","lat":41.4126508,"lng":2.2090895},{"Hotel_Name":"NH Collection Barcelona Constanza","lat":41.3885274,"lng":2.1360471},{"Hotel_Name":"NH Collection Amsterdam Grand Hotel Krasnapolsky","lat":52.3727067,"lng":4.8943658},{"Hotel_Name":"Park Plaza Victoria Amsterdam","lat":52.377278,"lng":4.897818},{"Hotel_Name":"Hotel Amsterdam De Roode Leeuw","lat":52.373704,"lng":4.893591},{"Hotel_Name":"Swiss tel Amsterdam","lat":52.3735266,"lng":4.8933041},{"Hotel_Name":"City Rooms","lat":48.2133296,"lng":16.3471399},{"Hotel_Name":"Holiday Inn Amsterdam","lat":52.3351951,"lng":4.8885354},{"Hotel_Name":"Jaz Amsterdam","lat":52.314371,"lng":4.9388064},{"Hotel_Name":"Best Western Premier Hotel Couture","lat":52.3511137,"lng":4.8411629},{"Hotel_Name":"Mercer Hotel Barcelona","lat":41.3827,"lng":2.1791999},{"Hotel_Name":"Mercure Vienna First","lat":48.2114567,"lng":16.3738677},{"Hotel_Name":"Melia Barcelona Sky 4 Sup","lat":41.4061636,"lng":2.2008956},{"Hotel_Name":"Bilderberg Garden Hotel","lat":52.3511447,"lng":4.8740764},{"Hotel_Name":"Ako Suites Hotel","lat":41.3861153,"lng":2.1611899},{"Hotel_Name":"Eurostars Cristal Palace","lat":41.3897945,"lng":2.1660575},{"Hotel_Name":"HCC St Moritz","lat":41.3908486,"lng":2.1680745},{"Hotel_Name":"Petit Palace Museum","lat":41.3888014,"lng":2.1653738},{"Hotel_Name":"NH Amsterdam Noord","lat":52.3923684,"lng":4.9110442},{"Hotel_Name":"Primero Primera","lat":41.4002812,"lng":2.1297427},{"Hotel_Name":"Hotel 4 Barcelona","lat":41.3959587,"lng":2.2008981},{"Hotel_Name":"Melia Vienna","lat":48.231911,"lng":16.4129493},{"Hotel_Name":"Graben Hotel","lat":48.2078955,"lng":16.3701084},{"Hotel_Name":"Medinaceli","lat":41.3781685,"lng":2.1786627},{"Hotel_Name":"Grand Hotel Downtown","lat":52.36513,"lng":4.8729422},{"Hotel_Name":"Amadi Park Hotel","lat":52.364962,"lng":4.873495},{"Hotel_Name":"Hotel Casa Camper","lat":41.3832414,"lng":2.1685298},{"Hotel_Name":"Holiday Inn London Wembley","lat":51.5590955,"lng":-0.284704},{"Hotel_Name":"Austria Trend Hotel Lassalle Wien","lat":48.2273013,"lng":16.4001791},{"Hotel_Name":"H10 Art Gallery 4 Sup","lat":41.392018,"lng":2.157066},{"Hotel_Name":"Hotel Granados 83","lat":41.391843,"lng":2.156844},{"Hotel_Name":"Best Western PLUS Epping Forest","lat":51.603207,"lng":0.010607},{"Hotel_Name":"NH Hesperia Barcelona del Mar","lat":41.4014399,"lng":2.2100745},{"Hotel_Name":"Novotel Amsterdam City","lat":52.333803,"lng":4.8884708},{"Hotel_Name":"St Pancras Renaissance Hotel London","lat":51.5267769,"lng":-0.1324905},{"Hotel_Name":"DoubleTree By Hilton London Excel","lat":51.507377,"lng":0.038657},{"Hotel_Name":"The Guesthouse Vienna","lat":48.2051299,"lng":16.369036},{"Hotel_Name":"Hotel Johann Strauss","lat":48.1949694,"lng":16.3692624},{"Hotel_Name":"Hotel Mercure Wien Westbahnhof","lat":48.1983543,"lng":16.3375246},{"Hotel_Name":"Savoy Hotel Amsterdam","lat":52.3497431,"lng":4.8911908},{"Hotel_Name":"Hotel Okura Amsterdam","lat":52.3487635,"lng":4.8938829},{"Hotel_Name":"Hotel Eitlj rg","lat":48.1513676,"lng":16.4064709},{"Hotel_Name":"Hotel V Fizeaustraat","lat":52.3451511,"lng":4.9252372},{"Hotel_Name":"Mercure Wien Zentrum","lat":48.2114087,"lng":16.3746469},{"Hotel_Name":"Best Western Premier Kaiserhof Wien","lat":48.1975497,"lng":16.3686397},{"Hotel_Name":"FourSide Hotel Suites Vienna","lat":48.2565936,"lng":16.4031426},{"Hotel_Name":"Millennium Copthorne Hotels at Chelsea Football Club","lat":51.481663,"lng":-0.1909565},{"Hotel_Name":"IH Hotels Milano Ambasciatori","lat":45.4644348,"lng":9.1952727},{"Hotel_Name":"Crowne Plaza Amsterdam South","lat":52.3357326,"lng":4.8743947},{"Hotel_Name":"Durrants Hotel","lat":51.5179386,"lng":-0.1529794},{"Hotel_Name":"Mercure Secession Wien","lat":48.200561,"lng":16.3647063},{"Hotel_Name":"Hotel Well and Come","lat":41.3991773,"lng":2.1656134},{"Hotel_Name":"City Hotel Deutschmeister","lat":48.22082,"lng":16.36664},{"Hotel_Name":"Ayre Hotel Gran V a","lat":41.3732462,"lng":2.1474351},{"Hotel_Name":"Sunotel Central","lat":41.3841429,"lng":2.1616896},{"Hotel_Name":"Silken Gran Hotel Havana","lat":41.3927101,"lng":2.1722139},{"Hotel_Name":"Cotton House Hotel Autograph Collection","lat":41.3915897,"lng":2.1720108},{"Hotel_Name":"Hotel Vueling Bcn by HC","lat":41.3831641,"lng":2.1604736},{"Hotel_Name":"H10 Casanova","lat":41.3842608,"lng":2.1609471},{"Hotel_Name":"Avenida Palace","lat":41.3891168,"lng":2.1671986},{"Hotel_Name":"Acta Atrium Palace","lat":41.390913,"lng":2.1706981},{"Hotel_Name":"Hotel Indigo Barcelona Plaza Catalunya","lat":41.391362,"lng":2.1700953},{"Hotel_Name":"Catalonia Passeig de Gr cia 4 Sup","lat":41.3901396,"lng":2.1696699},{"Hotel_Name":"Hotel Palace GL","lat":41.3916258,"lng":2.1716378},{"Hotel_Name":"Grupotel Gran Via 678","lat":41.392344,"lng":2.1729157},{"Hotel_Name":"Hotel Casa Bonay","lat":41.3935967,"lng":2.1742718},{"Hotel_Name":"The Cumberland A Guoman Hotel","lat":51.514879,"lng":-0.1606501},{"Hotel_Name":"FourSide Hotel Vienna City Center","lat":48.1825159,"lng":16.3322428},{"Hotel_Name":"Hotel Vienna","lat":48.2196722,"lng":16.3863588},{"Hotel_Name":"London Marriott Hotel Grosvenor Square","lat":51.511579,"lng":-0.1500193},{"Hotel_Name":"Rainers Hotel Vienna","lat":48.1791893,"lng":16.3625367},{"Hotel_Name":"Pol Grace Hotel","lat":41.4017465,"lng":2.1477365},{"Hotel_Name":"Austria Trend Hotel Bosei Wien","lat":48.1629737,"lng":16.3404024},{"Hotel_Name":"Pertschy Palais Hotel","lat":48.2082256,"lng":16.3684123},{"Hotel_Name":"Alma Boutique Hotel","lat":48.2112491,"lng":16.3776519},{"Hotel_Name":"Flemings Mayfair","lat":51.5064607,"lng":-0.1454198},{"Hotel_Name":"Hilton London Green Park","lat":51.5064534,"lng":-0.1456146},{"Hotel_Name":"COMO The Halkin","lat":51.4988977,"lng":-0.1562015},{"Hotel_Name":"Four Seasons Hotel London at Park Lane","lat":51.504439,"lng":-0.149911},{"Hotel_Name":"Hilton Vienna Danube Waterfront","lat":48.2140659,"lng":16.4217627},{"Hotel_Name":"Hotel 55","lat":51.5213303,"lng":-0.2915052},{"Hotel_Name":"The Harmonie Vienna","lat":48.2199427,"lng":16.3598984},{"Hotel_Name":"Hotel Park Villa","lat":48.23356,"lng":16.34569},{"Hotel_Name":"WestCord Fashion Hotel Amsterdam","lat":52.357655,"lng":4.844576},{"Hotel_Name":"The Hoxton Amsterdam","lat":52.3718665,"lng":4.8873794},{"Hotel_Name":"Ambassade Hotel","lat":52.369391,"lng":4.8871721},{"Hotel_Name":"Banks Mansion All Inclusive Hotel","lat":52.3653868,"lng":4.8931979},{"Hotel_Name":"Waldorf Astoria Amsterdam","lat":52.364768,"lng":4.896945},{"Hotel_Name":"Senator Hotel Vienna","lat":48.2195864,"lng":16.3255339},{"Hotel_Name":"Hotel J ger","lat":48.2238463,"lng":16.3138357},{"Hotel_Name":"Steigenberger Hotel Herrenhof","lat":48.2097958,"lng":16.3658705},{"Hotel_Name":"Radisson Blu Style Hotel Vienna","lat":48.2101211,"lng":16.3655537},{"Hotel_Name":"Hilton Garden Inn Vienna South","lat":48.1667886,"lng":16.344908},{"Hotel_Name":"Austria Trend Parkhotel Sch nbrunn Wien","lat":48.1866506,"lng":16.3023375},{"Hotel_Name":"Club Hotel Cortina","lat":48.1877942,"lng":16.2727214},{"Hotel_Name":"Arion Cityhotel Vienna und Appartements","lat":48.1585332,"lng":16.3451115},{"Hotel_Name":"NH Amsterdam Museum Quarter","lat":52.3560923,"lng":4.8858229},{"Hotel_Name":"Gartenhotel Altmannsdorf Hotel 1","lat":48.1640345,"lng":16.3216061},{"Hotel_Name":"Hilton London Kensington Hotel","lat":51.5051084,"lng":-0.213266},{"Hotel_Name":"Hotel Mercure Wien City","lat":48.2152663,"lng":16.376103},{"Hotel_Name":"Courtyard by Marriott Amsterdam Arena Atlas","lat":52.3101182,"lng":4.9472918},{"Hotel_Name":"Holiday Inn Amsterdam Arena Towers","lat":52.3096835,"lng":4.9422614},{"Hotel_Name":"The Lanesborough","lat":51.50303,"lng":-0.15242},{"Hotel_Name":"Amadi Panorama Hotel","lat":52.3588806,"lng":4.9886041},{"Hotel_Name":"Room Mate Aitana","lat":52.3846059,"lng":4.8941866},{"Hotel_Name":"DoubleTree by Hilton London Chelsea","lat":51.475172,"lng":-0.1870629},{"Hotel_Name":"Hotel G tico","lat":41.3835584,"lng":2.178311},{"Hotel_Name":"Hotel JL No76","lat":52.3595919,"lng":4.8801587},{"Hotel_Name":"Bilderberg Hotel Jan Luyken","lat":52.3599196,"lng":4.8810128},{"Hotel_Name":"Gran Hotel Barcino","lat":41.3830582,"lng":2.1778267},{"Hotel_Name":"Aparthotel Atenea Barcelona","lat":41.3862689,"lng":2.1291786},{"Hotel_Name":"Mercure Hotel Amsterdam City South","lat":52.335182,"lng":4.9138688},{"Hotel_Name":"Am Spiegeln","lat":48.1537005,"lng":16.2825822},{"Hotel_Name":"Hotel Gallitzinberg","lat":48.2145071,"lng":16.2845042},{"Hotel_Name":"InterContinental Wien","lat":48.2019865,"lng":16.3789934},{"Hotel_Name":"Dutch Design Hotel Artemis","lat":52.3417894,"lng":4.824952},{"Hotel_Name":"Mercure Josefshof Wien","lat":48.2085627,"lng":16.3541687},{"Hotel_Name":"Fleming s Selection Hotel Wien City","lat":48.20939,"lng":16.35339},{"Hotel_Name":"Cordial Theaterhotel Wien","lat":48.20953,"lng":16.35142},{"Hotel_Name":"Vincci Bit","lat":41.4114188,"lng":2.211756},{"Hotel_Name":"Hollmann Beletage Design Boutique","lat":48.2105156,"lng":16.3760717},{"Hotel_Name":"Hotel Bristol A Luxury Collection Hotel","lat":48.2024907,"lng":16.3702656},{"Hotel_Name":"Hotel Imperial A Luxury Collection Hotel","lat":48.2012505,"lng":16.3731255},{"Hotel_Name":"The Ring Vienna s Casual Luxury Hotel","lat":48.2017091,"lng":16.3710205},{"Hotel_Name":"Grand Hotel Wien","lat":48.2021105,"lng":16.3720841},{"Hotel_Name":"Hotel Ambassador","lat":48.2057193,"lng":16.3710878},{"Hotel_Name":"Austria Trend Hotel Astoria Wien","lat":48.2044655,"lng":16.3702399},{"Hotel_Name":"Austria Trend Hotel Europa Wien","lat":48.2062103,"lng":16.3710387},{"Hotel_Name":"Hotel Schani Wien","lat":48.1824271,"lng":16.3808291},{"Hotel_Name":"Ozo Hotel","lat":52.3047669,"lng":4.9476868},{"Hotel_Name":"Renaissance Amsterdam Hotel","lat":52.377955,"lng":4.894641},{"Hotel_Name":"Canal House","lat":52.3763099,"lng":4.8862701},{"Hotel_Name":"The Toren","lat":52.3758754,"lng":4.8859642},{"Hotel_Name":"The Dylan Amsterdam","lat":52.3654686,"lng":4.8798713},{"Hotel_Name":"Great Northern Hotel A Tribute Portfolio Hotel London","lat":51.531427,"lng":-0.126133},{"Hotel_Name":"De Vere Devonport House","lat":51.480672,"lng":-0.0071375},{"Hotel_Name":"K K Hotel Maria Theresia","lat":48.2031622,"lng":16.3561999},{"Hotel_Name":"Small Luxury Hotel Altstadt Vienna","lat":48.2047761,"lng":16.3512515},{"Hotel_Name":"Der Wilhelmshof","lat":48.2185837,"lng":16.3881339},{"Hotel_Name":"Park Plaza Vondelpark Amsterdam","lat":52.3542655,"lng":4.8664365},{"Hotel_Name":"Hotel Bagu s","lat":41.3827894,"lng":2.1715636},{"Hotel_Name":"Hotel 1898","lat":41.3834673,"lng":2.1712016},{"Hotel_Name":"Hotel Serhs Rivoli Rambla","lat":41.3843222,"lng":2.1712893},{"Hotel_Name":"Eurostars Ramblas","lat":41.3780983,"lng":2.1762005},{"Hotel_Name":"Hilton London Wembley","lat":51.5576962,"lng":-0.2835263},{"Hotel_Name":"Corus Hotel Hyde Park","lat":51.5119446,"lng":-0.179939},{"Hotel_Name":"London Elizabeth Hotel","lat":51.5120219,"lng":-0.1762414},{"Hotel_Name":"Lancaster London","lat":51.5119446,"lng":-0.179939},{"Hotel_Name":"Hotel Daniel Vienna","lat":48.1887,"lng":16.38371},{"Hotel_Name":"Eurostars Embassy","lat":48.1964001,"lng":16.3958668},{"Hotel_Name":"BEST WESTERN PLUS Amedia Wien","lat":48.1923791,"lng":16.3994512},{"Hotel_Name":"Mercure Grand Hotel Biedermeier Wien","lat":48.2038688,"lng":16.3887039},{"Hotel_Name":"Hotel Rathaus Wein Design","lat":48.2075294,"lng":16.3525967},{"Hotel_Name":"NH Collection Milano President","lat":45.4630685,"lng":9.1979367},{"Hotel_Name":"Hotel Dieci","lat":45.4738012,"lng":9.2239702},{"Hotel_Name":"Royal Ramblas","lat":41.3842838,"lng":2.1707092},{"Hotel_Name":"Best Western Blue Tower Hotel","lat":52.3793659,"lng":4.8457179},{"Hotel_Name":"Hampshire Hotel Amsterdam American","lat":52.363889,"lng":4.881302},{"Hotel_Name":"Ilunion Bel Art","lat":41.4101934,"lng":2.1695574},{"Hotel_Name":"25hours Hotel beim MuseumsQuartier","lat":48.2064745,"lng":16.3546297},{"Hotel_Name":"Hotel Topazz","lat":48.210285,"lng":16.373579},{"Hotel_Name":"Hampshire Hotel The Manor Amsterdam","lat":52.3591467,"lng":4.9263601},{"Hotel_Name":"Hotel Kavalier","lat":48.1940487,"lng":16.2971831},{"Hotel_Name":"Ofelias Hotel 4 Sup","lat":41.3957584,"lng":2.1822402},{"Hotel_Name":"Vincci Maritimo","lat":41.4082054,"lng":2.2124626},{"Hotel_Name":"London Marriott Hotel County Hall","lat":51.5016102,"lng":-0.1191545},{"Hotel_Name":"The Level at Melia Barcelona Sky","lat":41.406146,"lng":2.2008636},{"Hotel_Name":"Eurohotel Diagonal Port","lat":41.4006708,"lng":2.2087844},{"Hotel_Name":"Hotel Derby","lat":41.3897735,"lng":2.1419762},{"Hotel_Name":"Hotel Gran Derby Suites","lat":41.3900104,"lng":2.1422396},{"Hotel_Name":"Jumeirah Lowndes Hotel","lat":51.4993652,"lng":-0.1576613},{"Hotel_Name":"Catalonia Magdalenes","lat":41.3861283,"lng":2.1745291},{"Hotel_Name":"Expo Hotel Barcelona","lat":41.3792053,"lng":2.1427989},{"Hotel_Name":"The Corner Hotel","lat":41.3890578,"lng":2.1565948},{"Hotel_Name":"Best Western Premier Hotel Dante","lat":41.3894195,"lng":2.1564886},{"Hotel_Name":"Hotel Balmes","lat":41.3910621,"lng":2.1593373},{"Hotel_Name":"Alexandra Barcelona A DoubleTree by Hilton","lat":41.3931918,"lng":2.16152},{"Hotel_Name":"Alma Barcelona GL","lat":41.3945074,"lng":2.1632659},{"Hotel_Name":"Room Mate Carla","lat":41.3962658,"lng":2.1662153},{"Hotel_Name":"The Mandeville Hotel","lat":51.5165165,"lng":-0.1509735},{"Hotel_Name":"Hallmark Hotel London Chigwell Prince Regent","lat":51.6068054,"lng":0.0590416},{"Hotel_Name":"Upper Diagonal","lat":41.39038,"lng":2.121},{"Hotel_Name":"Falkensteiner Hotel Wien Margareten","lat":48.1868107,"lng":16.3440157},{"Hotel_Name":"Holiday Inn Vienna City","lat":48.1935593,"lng":16.3616098},{"Hotel_Name":"pentahotel Vienna","lat":48.1899743,"lng":16.3567007},{"Hotel_Name":"IntercityHotel Wien","lat":48.1965878,"lng":16.3413729},{"Hotel_Name":"Boutiquehotel Das Tyrol","lat":48.2008957,"lng":16.3592496},{"Hotel_Name":"NH Wien City","lat":48.2002872,"lng":16.3547746},{"Hotel_Name":"Hotel Corvinus","lat":48.1990335,"lng":16.3525051},{"Hotel_Name":"NH Collection Wien Zentrum","lat":48.1979979,"lng":16.3483314},{"Hotel_Name":"Aparthotel Mariano Cubi Barcelona","lat":41.3982129,"lng":2.1494179},{"Hotel_Name":"Hotel Arts Barcelona","lat":41.3865424,"lng":2.1969665},{"Hotel_Name":"Leonardo Hotel Vienna","lat":48.1945297,"lng":16.340327},{"Hotel_Name":"JUFA Hotel Wien","lat":48.1756283,"lng":16.4200957},{"Hotel_Name":"Golden Tulip Amsterdam West","lat":52.385601,"lng":4.8470597},{"Hotel_Name":"Eurostars Grand Marina Hotel GL","lat":41.371308,"lng":2.181698},{"Hotel_Name":"Pakat Suites Hotel","lat":48.19183,"lng":16.3770876},{"Hotel_Name":"Guitart Grand Passage","lat":41.3936071,"lng":2.1504611},{"Hotel_Name":"Hotel Rekord","lat":41.3985449,"lng":2.1438237},{"Hotel_Name":"Catalonia Barcelona 505","lat":41.4034965,"lng":2.1370426},{"Hotel_Name":"Mercure Amsterdam Sloterdijk Station","lat":52.3872884,"lng":4.8349748},{"Hotel_Name":"DoubleTree by Hilton Hotel Amsterdam NDSM Wharf","lat":52.4001813,"lng":4.8936653},{"Hotel_Name":"Hotel V Nesplein","lat":52.3711037,"lng":4.8936787},{"Hotel_Name":"Fleming s Conference Hotel Wien","lat":48.1995177,"lng":16.3388225},{"Hotel_Name":"ARCOTEL Wimberger","lat":48.2006001,"lng":16.3386333},{"Hotel_Name":"Hotel Schild","lat":48.251195,"lng":16.2989165},{"Hotel_Name":"Acta CITY47","lat":41.383515,"lng":2.1407396},{"Hotel_Name":"De L Europe Amsterdam","lat":52.3678779,"lng":4.8948936},{"Hotel_Name":"NH Collection Amsterdam Doelen","lat":52.3681919,"lng":4.8957609},{"Hotel_Name":"Hotel Die Port van Cleve","lat":52.3741426,"lng":4.8907741},{"Hotel_Name":"INK Hotel Amsterdam MGallery by Sofitel","lat":52.3754926,"lng":4.8929878},{"Hotel_Name":"Inntel Hotels Amsterdam Centre","lat":52.3760456,"lng":4.8943917},{"Hotel_Name":"Apex City Of London Hotel","lat":51.5104624,"lng":-0.0795502},{"Hotel_Name":"Mercure Hotel Amsterdam Centre Canal District","lat":52.3611852,"lng":4.8936341},{"Hotel_Name":"Onix Liceo","lat":41.3780229,"lng":2.1730782},{"Hotel_Name":"Abba Sants","lat":41.3825777,"lng":2.1400103},{"Hotel_Name":"NH Sants Barcelona","lat":41.384591,"lng":2.1378107},{"Hotel_Name":"COMO Metropolitan London","lat":51.5050355,"lng":-0.1500864},{"Hotel_Name":"Aloft London Excel","lat":51.5083719,"lng":0.0355768},{"Hotel_Name":"Ham Yard Hotel","lat":51.511174,"lng":-0.1349904},{"Hotel_Name":"DoubleTree by Hilton Amsterdam Centraal Station","lat":52.376752,"lng":4.904618},{"Hotel_Name":"Das Opernring Hotel","lat":48.2026449,"lng":16.3671054},{"Hotel_Name":"Exe Vienna","lat":48.2149414,"lng":16.3365285},{"Hotel_Name":"Mercure Hotel Amsterdam West","lat":52.3375677,"lng":4.8178172},{"Hotel_Name":"Luxury Suites Amsterdam","lat":52.3702613,"lng":4.9032489},{"Hotel_Name":"Sofitel Legend The Grand Amsterdam","lat":52.370835,"lng":4.895403},{"Hotel_Name":"Sir Adam Hotel","lat":52.3840358,"lng":4.9028572},{"Hotel_Name":"Hotel Grums Barcelona","lat":41.3727844,"lng":2.1721134},{"Hotel_Name":"Hotel Spa Villa Olimpica Suites","lat":41.3971434,"lng":2.1921947},{"Hotel_Name":"Sall s Hotel Pere IV","lat":41.3969273,"lng":2.192267},{"Hotel_Name":"Hampton by Hilton Amsterdam Centre East","lat":52.3714428,"lng":4.9346331},{"Hotel_Name":"Hotel Beethoven Wien","lat":48.2000165,"lng":16.3641802},{"Hotel_Name":"Roomz Vienna","lat":48.18661,"lng":16.42058},{"Hotel_Name":"Silken Concordia","lat":41.3747873,"lng":2.1611846},{"Hotel_Name":"Grosvenor House A JW Marriott Hotel","lat":51.5082019,"lng":-0.1545589},{"Hotel_Name":"Hotel Am Parkring","lat":48.2056333,"lng":16.3778615},{"Hotel_Name":"Vienna Marriott Hotel","lat":48.2050967,"lng":16.3770928},{"Hotel_Name":"H10 Port Vell 4 Sup","lat":41.3815625,"lng":2.1838458},{"Hotel_Name":"Hotel Margot House","lat":41.3918805,"lng":2.1660363},{"Hotel_Name":"Condes de Barcelona","lat":41.3935497,"lng":2.1627098},{"Hotel_Name":"Monument Hotel","lat":41.3939082,"lng":2.1622556},{"Hotel_Name":"Occidental Atenea Mar Adults Only","lat":41.4023621,"lng":2.2119049},{"Hotel_Name":"Hotel Front Maritim","lat":41.4037972,"lng":2.213767},{"Hotel_Name":"AC Hotel Barcelona Forum a Marriott Lifestyle Hotel","lat":41.4101306,"lng":2.2188047},{"Hotel_Name":"Duquesa de Cardona","lat":41.3798658,"lng":2.1805271},{"Hotel_Name":"Hotel The Serras","lat":41.3801815,"lng":2.180688},{"Hotel_Name":"Eurostars Bcn Design","lat":41.3907208,"lng":2.1660732},{"Hotel_Name":"Mandarin Oriental Barcelona","lat":41.391393,"lng":2.1668467},{"Hotel_Name":"Hotel Casa Fuster G L Monumento","lat":41.3980162,"lng":2.1581229},{"Hotel_Name":"Sixtytwo Hotel","lat":41.3930168,"lng":2.1646148},{"Hotel_Name":"Majestic Hotel Spa Barcelona GL","lat":41.3935179,"lng":2.1639813},{"Hotel_Name":"Royal Passeig de Gracia","lat":41.3946775,"lng":2.162638},{"Hotel_Name":"K K Hotel Picasso","lat":41.3866227,"lng":2.1840722},{"Hotel_Name":"AC Hotel Sants a Marriott Lifestyle Hotel","lat":41.3775577,"lng":2.1384686},{"Hotel_Name":"Hilton Diagonal Mar Barcelona","lat":41.4084334,"lng":2.2178205},{"Hotel_Name":"Hotel Palais Strudlhof","lat":48.2217697,"lng":16.3578738},{"Hotel_Name":"Renaissance Barcelona Hotel","lat":41.39277,"lng":2.16745},{"Hotel_Name":"Claris Hotel Spa GL","lat":41.3944848,"lng":2.1651078},{"Hotel_Name":"H10 Casa Mimosa 4 Sup","lat":41.3962106,"lng":2.1621171},{"Hotel_Name":"Catalonia Ramblas 4 Sup","lat":41.3856387,"lng":2.1668274},{"Hotel_Name":"Hotel Midmost","lat":41.3856173,"lng":2.1659487},{"Hotel_Name":"Arthotel ANA Westbahn","lat":48.1979514,"lng":16.336318},{"Hotel_Name":"The Rookery","lat":51.520171,"lng":-0.102463},{"Hotel_Name":"Hotel Wandl","lat":48.2097026,"lng":16.3703902},{"Hotel_Name":"Hotel Sacher Wien","lat":48.2038793,"lng":16.3698086},{"Hotel_Name":"ME Milan Il Duca","lat":45.4793852,"lng":9.1961308},{"Hotel_Name":"Hotel Principe Di Savoia","lat":45.479888,"lng":9.1962982},{"Hotel_Name":"The Westin Palace","lat":45.4790357,"lng":9.199028},{"Hotel_Name":"Glam Milano","lat":45.4838504,"lng":9.2034067},{"Hotel_Name":"Excelsior Hotel Gallia Luxury Collection Hotel","lat":45.4857027,"lng":9.2020127},{"Hotel_Name":"Rosa Grand Milano Starhotels Collezione","lat":45.4638223,"lng":9.1940273},{"Hotel_Name":"TownHouse 12","lat":45.4844028,"lng":9.1673528},{"Hotel_Name":"Hotel Mozart","lat":45.4834133,"lng":9.1666361},{"Hotel_Name":"Hotel Dei Cavalieri","lat":45.4608547,"lng":9.1886179},{"Hotel_Name":"Best Western Plus Hotel Galles","lat":45.4805847,"lng":9.2117326},{"Hotel_Name":"Starhotels Anderson","lat":45.4852549,"lng":9.2069501},{"Hotel_Name":"Hotel Michelangelo","lat":45.4845143,"lng":9.2057532},{"Hotel_Name":"Hotel Mercure Milano Centro","lat":45.4747809,"lng":9.2059385},{"Hotel_Name":"NYX Milan","lat":45.4868745,"lng":9.2018406},{"Hotel_Name":"The Yard Milano","lat":45.453152,"lng":9.179172},{"Hotel_Name":"Hotel Sunflower","lat":45.498503,"lng":9.1664111},{"Hotel_Name":"Sheraton Grand London Park Lane","lat":51.5092876,"lng":-0.1370062},{"Hotel_Name":"M venpick Hotel Amsterdam City Centre","lat":52.3781016,"lng":4.9142508},{"Hotel_Name":"Silken Ramblas","lat":41.3830117,"lng":2.1700699},{"Hotel_Name":"Duquesa Suites Barcelona","lat":41.3810421,"lng":2.1814294},{"Hotel_Name":"Hotel SB Diagonal Zero Barcelona 4 Sup","lat":41.4111652,"lng":2.2192012},{"Hotel_Name":"Hotel DO Pla a Reial G L ","lat":41.3799929,"lng":2.1748256},{"Hotel_Name":"W Barcelona","lat":41.368437,"lng":2.1901534},{"Hotel_Name":"H10 Urquinaona Plaza","lat":41.3892128,"lng":2.1726015},{"Hotel_Name":"Hotel du Louvre in the Unbound Collection by Hyatt","lat":48.8639788,"lng":2.3352615},{"Hotel_Name":"W Paris Op ra","lat":48.8719697,"lng":2.3316014},{"Hotel_Name":"Hotel Miramar Barcelona GL","lat":41.3703041,"lng":2.17141},{"Hotel_Name":"Olivia Plaza Hotel","lat":41.3861459,"lng":2.1711594},{"Hotel_Name":"Catalonia Barcelona Plaza","lat":41.3750293,"lng":2.1491172},{"Hotel_Name":"Barcel Sants","lat":41.3798964,"lng":2.1412433},{"Hotel_Name":"London Marriott Maida Vale","lat":51.5357597,"lng":-0.1902591},{"Hotel_Name":"The Langham London","lat":51.517876,"lng":-0.1440647},{"Hotel_Name":"The Ned","lat":51.5135929,"lng":-0.0907833},{"Hotel_Name":"Sofitel Vienna Stephansdom","lat":48.212857,"lng":16.37986},{"Hotel_Name":"Grand Hotel Amr th Amsterdam","lat":52.3744149,"lng":4.9041443},{"Hotel_Name":"art otel Amsterdam","lat":52.377743,"lng":4.897057},{"Hotel_Name":"NH Collection Amsterdam Barbizon Palace","lat":52.3764175,"lng":4.9002201},{"Hotel_Name":"Pulitzer Amsterdam","lat":52.3728353,"lng":4.883326},{"Hotel_Name":"Dikker en Thijs Fenice Hotel","lat":52.364971,"lng":4.8839827},{"Hotel_Name":"Andaz Amsterdam Prinsengracht A Hyatt Hotel","lat":52.3678368,"lng":4.8830788},{"Hotel_Name":"Hotel Seven One Seven","lat":52.3648077,"lng":4.8853962},{"Hotel_Name":"citizenM Amsterdam","lat":52.3419432,"lng":4.8759604},{"Hotel_Name":"InterContinental Amstel Amsterdam","lat":52.3600068,"lng":4.9051643},{"Hotel_Name":"Attica 21 Barcelona Mar","lat":41.4052324,"lng":2.2117289},{"Hotel_Name":"Hotel America Barcelona","lat":41.3919083,"lng":2.1573318},{"Hotel_Name":"Golden Tulip Amsterdam Riverside","lat":52.3154533,"lng":4.9962997},{"Hotel_Name":"Catalonia Park Putxet","lat":41.4072812,"lng":2.1443116},{"Hotel_Name":"Hotel Murmuri Barcelona","lat":41.3941625,"lng":2.1597836},{"Hotel_Name":"NH Collection Barcelona Gran Hotel Calder n","lat":41.3894654,"lng":2.1662651},{"Hotel_Name":"H10 Metropolitan 4 Sup","lat":41.3875467,"lng":2.1673975},{"Hotel_Name":"HCC Regente","lat":41.3922919,"lng":2.1622256},{"Hotel_Name":"Barcel Raval","lat":41.3790126,"lng":2.1696339},{"Hotel_Name":"Le M ridien Barcelona","lat":41.3837453,"lng":2.171014},{"Hotel_Name":"Ilunion Barcelona","lat":41.3989322,"lng":2.2024183},{"Hotel_Name":"Austria Trend Hotel Rathauspark Wien","lat":48.2133054,"lng":16.3567884},{"Hotel_Name":"Hotel Landhaus Fuhrgassl Huber","lat":48.2508693,"lng":16.304957},{"Hotel_Name":"Hotel Parco di Sch nbrunn Vienna","lat":48.1776236,"lng":16.3243588},{"Hotel_Name":"Catalonia Born","lat":41.3896916,"lng":2.1798661},{"Hotel_Name":"NH Amsterdam Caransa","lat":52.3664077,"lng":4.8969091},{"Hotel_Name":"NH Amsterdam Schiller","lat":52.3657092,"lng":4.8966912},{"Hotel_Name":"Royal Amsterdam Hotel","lat":52.3657281,"lng":4.8972883},{"Hotel_Name":"Lindner Hotel Am Belvedere","lat":48.1955998,"lng":16.3826989},{"Hotel_Name":"NH Wien Belvedere","lat":48.1954348,"lng":16.383429},{"Hotel_Name":"Austria Trend Hotel Savoyen Vienna","lat":48.1950444,"lng":16.3844751},{"Hotel_Name":"Austria Trend Hotel Doppio Wien","lat":48.1854312,"lng":16.404884},{"Hotel_Name":"K West Hotel Spa","lat":51.5013149,"lng":-0.2174459},{"Hotel_Name":"Appartement Hotel an der Riemergasse","lat":48.2071576,"lng":16.3765913},{"Hotel_Name":"Saint SHERMIN bed breakfast champagne","lat":48.1978409,"lng":16.367087},{"Hotel_Name":"The Wittmore Adults Only","lat":41.380939,"lng":2.1796095},{"Hotel_Name":"Le Meridien Vienna","lat":48.2027296,"lng":16.3661211},{"Hotel_Name":"The College Hotel","lat":52.3527675,"lng":4.88373},{"Hotel_Name":"Hotel Roemer Amsterdam","lat":52.3617577,"lng":4.8780052},{"Hotel_Name":"Hotel mbit Barcelona","lat":41.3907821,"lng":2.1717426},{"Hotel_Name":"Catalonia Eixample 1864","lat":41.393599,"lng":2.1684151},{"Hotel_Name":"Negresco Princess 4 Sup","lat":41.3905166,"lng":2.1725643},{"Hotel_Name":"Petit Palace Barcelona","lat":41.3909816,"lng":2.1714938},{"Hotel_Name":"Roger de Ll ria","lat":41.3910786,"lng":2.1717285},{"Hotel_Name":"Hotel Garbi Millenni","lat":41.3759896,"lng":2.167148},{"Hotel_Name":"Vincci Gala","lat":41.3895263,"lng":2.1747136},{"Hotel_Name":"Catalonia Square 4 Sup","lat":41.3885658,"lng":2.1712991},{"Hotel_Name":"H10 Universitat","lat":41.3869565,"lng":2.1665338},{"Hotel_Name":"Hotel Regina","lat":48.2163343,"lng":16.3595536},{"Hotel_Name":"Bcn Urban Hotels Gran Rosellon","lat":41.4226648,"lng":2.1464261},{"Hotel_Name":"Gallery Hotel","lat":41.3949242,"lng":2.1593099},{"Hotel_Name":"Hotel Omm","lat":41.3962468,"lng":2.1609551},{"Hotel_Name":"Ayre Hotel Rosell n","lat":41.4047382,"lng":2.1727127},{"Hotel_Name":"Evenia Rossello","lat":41.3920254,"lng":2.1554675},{"Hotel_Name":"Hotel Imlauer Wien","lat":48.2176776,"lng":16.3821364},{"Hotel_Name":"Hotel Nestroy Wien","lat":48.2178332,"lng":16.3821636},{"Hotel_Name":"Hotel Lam e","lat":48.2102677,"lng":16.3741269},{"Hotel_Name":"Crowne Plaza London Docklands","lat":51.5083537,"lng":0.0198855},{"Hotel_Name":"K K Palais Hotel","lat":48.2138096,"lng":16.3714293},{"Hotel_Name":"Radisson Blu Hotel Amsterdam","lat":52.3702469,"lng":4.8966743},{"Hotel_Name":"Catalonia Rigoletto","lat":41.385817,"lng":2.1256789},{"Hotel_Name":"Hotel Neri","lat":41.3832498,"lng":2.1753483},{"Hotel_Name":"Capri by Fraser Barcelona","lat":41.3976233,"lng":2.188975},{"Hotel_Name":"Hotel Espa a Ramblas","lat":41.3799209,"lng":2.1728181},{"Hotel_Name":"Abba Garden","lat":41.3854716,"lng":2.1018835},{"Hotel_Name":"Zenit Barcelona","lat":41.3949199,"lng":2.1468594},{"Hotel_Name":"Hyatt Regency Amsterdam","lat":52.3617751,"lng":4.9118187},{"Hotel_Name":"Austria Trend Hotel Schloss Wilhelminenberg Wien","lat":48.21958,"lng":16.28551},{"Hotel_Name":"Copthorne Tara Hotel London Kensington","lat":51.499046,"lng":-0.1917073},{"Hotel_Name":"Courtyard by Marriott Vienna Schoenbrunn","lat":48.184732,"lng":16.3211959},{"Hotel_Name":"Arthotel ANA Prime","lat":48.1925582,"lng":16.3576071},{"Hotel_Name":"Fletcher Hotel Amsterdam","lat":52.2924567,"lng":4.9444338},{"Hotel_Name":"Austria Trend Hotel Park Royal Palace Vienna","lat":48.191339,"lng":16.3165873},{"Hotel_Name":"Falkensteiner Hotel Wien Zentrum Schottenfeld","lat":48.2048494,"lng":16.343618},{"Hotel_Name":"Hilton Vienna Plaza","lat":48.2155236,"lng":16.3646858},{"Hotel_Name":"Palais Hansen Kempinski Vienna","lat":48.2163149,"lng":16.3685103},{"Hotel_Name":"Hotel de France Wien","lat":48.2146623,"lng":16.3627994},{"Hotel_Name":"Grand Ferdinand Vienna Your Hotel In The City Center","lat":48.2022415,"lng":16.3749336},{"Hotel_Name":"Hotel Am Schubertring","lat":48.2017277,"lng":16.375463},{"Hotel_Name":"The Ritz Carlton Vienna","lat":48.2022742,"lng":16.3762615},{"Hotel_Name":"Hotel K nig von Ungarn","lat":48.2082215,"lng":16.3751842},{"Hotel_Name":"Hotel Domizil","lat":48.2080479,"lng":16.375612},{"Hotel_Name":"Hotel Capricorno","lat":48.2111522,"lng":16.3788631},{"Hotel_Name":"Hotel Advance","lat":41.38332,"lng":2.16283},{"Hotel_Name":"Derag Livinghotel Kaiser Franz Joseph Vienna","lat":48.24606,"lng":16.34101},{"Hotel_Name":"Room Mate Giulia","lat":45.4651371,"lng":9.1895249},{"Hotel_Name":"Simm s Hotel","lat":48.1790835,"lng":16.4116997},{"Hotel_Name":"Hotel Esther a","lat":52.3705447,"lng":4.8886439},{"Hotel_Name":"Hotel Royal","lat":48.2078727,"lng":16.3724042},{"Hotel_Name":"Sloane Square Hotel","lat":51.4927325,"lng":-0.1573708},{"Hotel_Name":"Best Western Plus Hotel Blue Square","lat":52.3786823,"lng":4.8207833},{"Hotel_Name":"Austria Trend Hotel Ananas Wien","lat":48.1915401,"lng":16.3546263},{"Hotel_Name":"Hotel Zeitgeist Vienna Hauptbahnhof","lat":48.1829645,"lng":16.3776709},{"Hotel_Name":"AZIMUT Hotel Vienna","lat":48.1834787,"lng":16.3762765},{"Hotel_Name":"Hilton London Canary Wharf","lat":51.5007324,"lng":-0.01655},{"Hotel_Name":"Grange Holborn Hotel","lat":51.519616,"lng":-0.1218432},{"Hotel_Name":"WestCord Art Hotel Amsterdam 4 stars","lat":52.3924898,"lng":4.8683822},{"Hotel_Name":"W Amsterdam","lat":52.3727871,"lng":4.8900059},{"Hotel_Name":"NH City Centre Amsterdam","lat":52.3697554,"lng":4.8887815},{"Hotel_Name":"The Stafford London","lat":51.5059087,"lng":-0.1403795},{"Hotel_Name":"The Tower A Guoman Hotel","lat":51.5064721,"lng":-0.0716893},{"Hotel_Name":"Ramada Apollo Amsterdam Centre","lat":52.3681299,"lng":4.8440847},{"Hotel_Name":"Amsterdam Marriott Hotel","lat":52.362514,"lng":4.8800077},{"Hotel_Name":"Park Hotel","lat":52.3613814,"lng":4.8832594},{"Hotel_Name":"NH Amsterdam Centre","lat":52.3630682,"lng":4.8794451},{"Hotel_Name":"DO CO Hotel Vienna","lat":48.2082385,"lng":16.3715725},{"Hotel_Name":"Hotel Am Stephansplatz","lat":48.2087646,"lng":16.3721138},{"Hotel_Name":"The Savoy","lat":51.5111922,"lng":-0.1194006},{"Hotel_Name":"The May Fair Hotel","lat":51.5078943,"lng":-0.1436707},{"Hotel_Name":"Best Western Hotel Pension Arenberg Wien Zentrum","lat":48.2107358,"lng":16.382147},{"Hotel_Name":"Hotel Stefanie","lat":48.2142766,"lng":16.3801779},{"Hotel_Name":"Hotel City Central","lat":48.21341,"lng":16.37988},{"Hotel_Name":"Amba Hotel Charing Cross","lat":51.508236,"lng":-0.1261963},{"Hotel_Name":"Hotel Das Tigra","lat":48.2121772,"lng":16.3680771},{"Hotel_Name":"Holiday Inn London Brent Cross","lat":51.5731061,"lng":-0.2233332},{"Hotel_Name":"Bermondsey Square Hotel A Bespoke Hotel","lat":51.4991134,"lng":-0.0790969},{"Hotel_Name":"Courtyard by Marriott Vienna Prater Messe","lat":48.2130607,"lng":16.4133973},{"Hotel_Name":"NH Barcelona Stadium","lat":41.3812574,"lng":2.1269078},{"Hotel_Name":"Imperial Riding School Renaissance Vienna Hotel","lat":48.1966396,"lng":16.3863822},{"Hotel_Name":"Aparthotel Adagio Vienna City","lat":48.2110845,"lng":16.3838405},{"Hotel_Name":"Mercure Barcelona Condor","lat":41.3999934,"lng":2.1452467},{"Hotel_Name":"H10 Cubik 4 Sup","lat":41.388024,"lng":2.1731556},{"Hotel_Name":"Sunotel Club Central","lat":41.38793,"lng":2.1568061},{"Hotel_Name":"Conservatorium Hotel","lat":52.358631,"lng":4.8786236},{"Hotel_Name":"NH Amsterdam Zuid","lat":52.3266672,"lng":4.8800884},{"Hotel_Name":"Hotel Tocq","lat":45.4828787,"lng":9.186346},{"Hotel_Name":"The Square Milano Duomo","lat":45.4608604,"lng":9.1890215},{"Hotel_Name":"Mandarin Oriental Milan","lat":45.4694772,"lng":9.1909325},{"Hotel_Name":"Art Hotel Navigli","lat":45.4501306,"lng":9.1696481},{"Hotel_Name":"Hotel Balmoral","lat":41.3961294,"lng":2.1551626},{"Hotel_Name":"Brunelleschi Hotel","lat":45.461177,"lng":9.191047},{"Hotel_Name":"Camperio House Suites Apartments","lat":45.466598,"lng":9.183064},{"Hotel_Name":"TownHouse 33","lat":45.4693349,"lng":9.2142383},{"Hotel_Name":"Hotel Regina","lat":45.459485,"lng":9.179511},{"Hotel_Name":"Hotel Capitol Milano","lat":45.4661781,"lng":9.1588367},{"Hotel_Name":"Hotel Clerici","lat":45.4667717,"lng":9.1871001},